time,x,y,z,roll,pitch,yaw,linx,liny,linz,angx,angy,angz,cmd_linx,cmd_liny,cmd_linz,cmd_angz
1762201156.949167,-0.021239,-0.064706,0.930103,-0.001995,-0.007949,-0.995375,-0.006171,0.011900,0.088124,0.000000,0.000000,0.000000,-0.000000,-0.000000,-0.000000,-0.000000
1762201156.982285,-0.021239,-0.064706,0.930103,-0.001995,-0.007949,-0.995375,-0.006171,0.011900,0.088124,0.000000,0.000000,0.000000,-0.000000,-0.000000,-0.000000,-0.000000
1762201157.015181,-0.020699,-0.064980,0.935089,-0.001995,-0.007949,-0.995375,-0.007218,0.005633,0.075382,0.000000,0.000000,0.000000,-0.000000,-0.000000,-0.000000,-0.000000
1762201157.048170,-0.020204,-0.065233,0.939663,-0.001904,-0.010185,-0.995351,-0.007217,0.005634,0.075382,0.000000,0.000000,0.000000,-0.000000,-0.000000,-0.000000,-0.000000
1762201157.081201,-0.020204,-0.065233,0.939663,-0.001904,-0.010185,-0.995351,-0.007217,0.005634,0.075382,0.000000,0.000000,0.000000,-0.000000,-0.000000,-0.000000,-0.000000
1762201157.114197,-0.020204,-0.065233,0.939663,-0.001904,-0.010185,-0.995351,-0.007217,0.005634,0.075382,0.000000,0.000000,0.000000,-0.000000,-0.000000,-0.000000,-0.000000
1762201157.147165,-0.019585,-0.065548,0.945387,-0.001904,-0.010185,-0.995351,-0.007217,0.005634,0.075382,0.000000,0.000000,0.000000,-0.000000,-0.000000,-0.000000,-0.000000
1762201157.180147,-0.019209,-0.065218,0.948826,-0.001904,-0.010185,-0.995351,-0.007886,-0.004613,0.062780,0.000000,0.000000,0.000000,-0.000000,-0.000000,-0.000000,-0.000000
1762201157.213161,-0.019209,-0.065218,0.948826,-0.001904,-0.010185,-0.995351,-0.007886,-0.004613,0.062780,0.000000,0.000000,0.000000,-0.000000,-0.000000,-0.000000,-0.000000
1762201157.246168,-0.018909,-0.064954,0.951573,-0.002070,-0.010700,-0.995339,-0.007887,-0.004612,0.062780,0.000000,0.000000,0.000000,-0.000000,-0.000000,-0.000000,-0.000000
1762201157.279170,-0.018909,-0.064954,0.951573,-0.002070,-0.010700,-0.995339,-0.007887,-0.004612,0.062780,0.000000,0.000000,0.000000,-0.000000,-0.000000,-0.000000,-0.000000
1762201157.312167,-0.018458,-0.064558,0.955694,-0.002070,-0.010700,-0.995339,-0.007887,-0.004612,0.062780,0.000000,0.000000,0.000000,-0.000000,-0.000000,-0.000000,-0.000000
1762201157.345142,-0.018458,-0.064558,0.955694,-0.002070,-0.010700,-0.995339,-0.007887,-0.004612,0.062780,0.000000,0.000000,0.000000,-0.000000,-0.000000,-0.000000,-0.000000
1762201157.378142,-0.017697,-0.062834,0.959368,-0.002070,-0.010700,-0.995339,-0.012266,-0.017648,0.041900,0.000000,0.000000,0.000000,-0.000000,-0.000000,-0.000000,-0.000000
1762201157.411151,-0.017697,-0.062834,0.959368,-0.002070,-0.010700,-0.995339,-0.012266,-0.017648,0.041900,0.000000,0.000000,0.000000,-0.000000,-0.000000,-0.000000,-0.000000
1762201157.444171,-0.017697,-0.062834,0.959368,-0.002070,-0.010700,-0.995339,-0.012266,-0.017648,0.041900,0.000000,0.000000,0.000000,-0.000000,-0.000000,-0.000000,-0.000000
1762201157.477203,-0.017043,-0.061351,0.962527,-0.002463,-0.010002,-0.995396,-0.012247,-0.017661,0.041900,0.000000,0.000000,0.000000,-0.000000,-0.000000,-0.000000,-0.000000
1762201157.510183,-0.017043,-0.061351,0.962527,-0.002463,-0.010002,-0.995396,-0.012247,-0.017661,0.041900,0.000000,0.000000,0.000000,-0.000000,-0.000000,-0.000000,-0.000000
1762201157.543185,-0.016501,-0.060121,0.965147,-0.002463,-0.010002,-0.995396,-0.012247,-0.017661,0.041900,0.000000,0.000000,0.000000,-0.000000,-0.000000,-0.000000,-0.000000
1762201157.576148,-0.016125,-0.059270,0.966963,-0.002463,-0.010002,-0.995396,-0.012247,-0.017661,0.041900,0.000000,0.000000,0.000000,-0.000000,-0.000000,-0.000000,-0.000000
1762201157.609165,-0.016125,-0.059270,0.966963,-0.002463,-0.010002,-0.995396,-0.012247,-0.017661,0.041900,0.000000,0.000000,0.000000,-0.000000,-0.000000,-0.000000,-0.000000
1762201157.642165,-0.016125,-0.059270,0.966963,-0.002463,-0.010002,-0.995396,-0.012247,-0.017661,0.041900,0.000000,0.000000,0.000000,-0.000000,-0.000000,-0.000000,-0.000000
1762201157.675160,-0.015565,-0.056803,0.969887,-0.002007,-0.008918,-0.995400,-0.010851,-0.024679,0.031172,0.000000,0.000000,0.000000,-0.000000,-0.000000,-0.000000,-0.000000
1762201157.708331,-0.015565,-0.056803,0.969887,-0.002007,-0.008918,-0.995400,-0.010851,-0.024679,0.031172,0.000000,0.000000,0.000000,-0.000000,-0.000000,-0.000000,-0.000000
1762201157.741210,-0.015211,-0.055244,0.971736,-0.002007,-0.008918,-0.995400,-0.010851,-0.024679,0.031172,0.000000,0.000000,0.000000,0.375045,-0.000000,-0.000000,-0.000000
1762201157.774183,-0.014790,-0.054063,0.971969,-0.002007,-0.008918,-0.995400,-0.013681,-0.023167,0.005000,0.000000,0.000000,0.000000,1.000000,-0.000000,-0.000000,-0.000000
1762201157.807192,-0.014790,-0.054063,0.971969,-0.002007,-0.008918,-0.995400,-0.013681,-0.023167,0.005000,0.000000,0.000000,0.000000,1.000000,-0.000000,-0.000000,-0.000000
1762201157.840199,-0.014202,-0.052414,0.972295,-0.001936,-0.007542,-0.995395,-0.013689,-0.023162,0.005000,0.000000,0.000000,0.000000,1.000000,-0.000000,-0.000000,-0.000000
1762201157.873189,-0.014202,-0.052414,0.972295,-0.001936,-0.007542,-0.995395,-0.013689,-0.023162,0.005000,0.000000,0.000000,0.000000,1.000000,-0.000000,-0.000000,-0.000000
1762201157.906163,-0.013607,-0.050743,0.972624,-0.001936,-0.007542,-0.995395,-0.013689,-0.023162,0.005000,0.000000,0.000000,0.000000,1.000000,-0.000000,-0.000000,-0.000000
1762201157.939157,-0.013607,-0.050743,0.972624,-0.001936,-0.007542,-0.995395,-0.013689,-0.023162,0.005000,0.000000,0.000000,0.000000,1.000000,-0.000000,-0.000000,-0.000000
1762201157.972158,-0.012966,-0.048945,0.972979,-0.001936,-0.007542,-0.995395,-0.013689,-0.023162,0.005000,0.000000,0.000000,0.000000,1.000000,-0.000000,-0.000000,-0.000000
1762201158.005140,-0.012966,-0.048945,0.972979,-0.001936,-0.007542,-0.995395,-0.013689,-0.023162,0.005000,0.000000,0.000000,0.000000,1.000000,-0.000000,-0.000000,-0.000000
1762201158.038160,-0.013437,-0.047897,0.976088,0.021952,-0.005220,-0.995247,0.004330,-0.018298,0.050860,0.000000,0.000000,0.000000,1.000000,-0.000000,-0.000000,-0.000000
1762201158.071152,-0.013437,-0.047897,0.976088,0.021952,-0.005220,-0.995247,0.004330,-0.018298,0.050860,0.000000,0.000000,0.000000,1.000000,-0.000000,-0.000000,-0.000000
1762201158.104246,-0.013958,-0.046738,0.979525,0.021952,-0.005220,-0.995247,0.004330,-0.018298,0.050860,0.000000,0.000000,0.000000,1.000000,-0.000000,-0.000000,-0.000000
1762201158.137187,-0.013958,-0.046738,0.979525,0.021952,-0.005220,-0.995247,0.004330,-0.018298,0.050860,0.000000,0.000000,0.000000,1.000000,-0.000000,-0.000000,-0.000000
1762201158.170165,-0.014470,-0.045600,0.982899,0.021952,-0.005220,-0.995247,0.004330,-0.018298,0.050860,0.000000,0.000000,0.000000,1.000000,-0.000000,-0.000000,-0.000000
1762201158.203154,-0.014470,-0.045600,0.982899,0.021952,-0.005220,-0.995247,0.004330,-0.018298,0.050860,0.000000,0.000000,0.000000,1.000000,-0.000000,-0.000000,-0.000000
1762201158.236161,-0.021701,-0.045807,0.986642,0.036234,-0.003717,-0.994841,0.104573,-0.017054,0.054813,0.000000,0.000000,0.000000,1.000000,-0.000000,-0.000000,-0.000000
1762201158.269144,-0.021701,-0.045807,0.986642,0.036234,-0.003717,-0.994841,0.104573,-0.017054,0.054813,0.000000,0.000000,0.000000,1.000000,-0.000000,-0.000000,-0.000000
1762201158.302158,-0.029059,-0.046018,0.990449,0.036234,-0.003717,-0.994841,0.104573,-0.017054,0.054813,0.000000,0.000000,0.000000,1.000000,-0.000000,-0.000000,-0.000000
1762201158.335146,-0.029059,-0.046018,0.990449,0.036234,-0.003717,-0.994841,0.104573,-0.017054,0.054813,0.000000,0.000000,0.000000,1.000000,-0.000000,-0.000000,-0.000000
1762201158.368175,-0.034968,-0.046187,0.993508,0.036234,-0.003717,-0.994841,0.104573,-0.017054,0.054813,0.000000,0.000000,0.000000,1.000000,-0.000000,-0.000000,-0.000000
1762201158.401186,-0.034968,-0.046187,0.993508,0.036234,-0.003717,-0.994841,0.104573,-0.017054,0.054813,0.000000,0.000000,0.000000,1.000000,-0.000000,-0.000000,-0.000000
1762201158.434175,-0.048615,-0.047251,0.995658,0.040019,-0.004253,-0.994707,0.178061,-0.020091,0.028145,0.000000,0.000000,0.000000,1.000000,-0.000000,-0.000000,-0.000000
1762201158.467152,-0.048615,-0.047251,0.995658,0.040019,-0.004253,-0.994707,0.178061,-0.020091,0.028145,0.000000,0.000000,0.000000,1.000000,-0.000000,-0.000000,-0.000000
1762201158.500156,-0.059845,-0.048126,0.997427,0.040019,-0.004253,-0.994707,0.178061,-0.020091,0.028145,0.000000,0.000000,0.000000,1.000000,-0.000000,-0.000000,-0.000000
1762201158.533195,-0.059845,-0.048126,0.997427,0.040019,-0.004253,-0.994707,0.178061,-0.020091,0.028145,0.000000,0.000000,0.000000,1.000000,-0.000000,-0.000000,-0.000000
1762201158.566204,-0.073317,-0.049177,0.999549,0.040019,-0.004253,-0.994707,0.178061,-0.020091,0.028145,0.000000,0.000000,0.000000,1.000000,-0.000000,-0.000000,-0.000000
1762201158.599174,-0.073317,-0.049177,0.999549,0.040019,-0.004253,-0.994707,0.178061,-0.020091,0.028145,0.000000,0.000000,0.000000,1.000000,-0.000000,-0.000000,-0.000000
1762201158.632214,-0.092112,-0.050941,1.001197,0.040019,-0.004253,-0.994707,0.320960,-0.031083,0.028152,0.000000,0.000000,0.000000,1.000000,-0.000000,-0.000000,-0.000000
1762201158.665211,-0.092112,-0.050941,1.001197,0.040019,-0.004253,-0.994707,0.320960,-0.031083,0.028152,0.000000,0.000000,0.000000,1.000000,-0.000000,-0.000000,-0.000000
1762201158.698171,-0.114621,-0.053054,1.003171,0.042332,-0.002883,-0.994567,0.320929,-0.031406,0.028152,0.000000,0.000000,0.000000,1.000000,-0.000000,-0.000000,-0.000000
1762201158.731178,-0.114621,-0.053054,1.003171,0.042332,-0.002883,-0.994567,0.320929,-0.031406,0.028152,0.000000,0.000000,0.000000,1.000000,-0.000000,-0.000000,-0.000000
1762201158.764167,-0.133724,-0.054848,1.004846,0.042332,-0.002883,-0.994567,0.320929,-0.031406,0.028152,0.000000,0.000000,0.000000,1.000000,-0.000000,-0.000000,-0.000000
1762201158.797183,-0.133724,-0.054848,1.004846,0.042332,-0.002883,-0.994567,0.320929,-0.031406,0.028152,0.000000,0.000000,0.000000,1.000000,-0.000000,-0.000000,-0.000000
1762201158.830185,-0.164128,-0.058383,1.005108,0.041732,-0.002723,-0.994564,0.493960,-0.037602,0.004243,0.000000,0.000000,0.000000,1.000000,-0.000000,-0.000000,-0.000000
1762201158.863176,-0.164128,-0.058383,1.005108,0.041732,-0.002723,-0.994564,0.493960,-0.037602,0.004243,0.000000,0.000000,0.000000,1.000000,-0.000000,-0.000000,-0.000000
1762201158.896144,-0.200225,-0.062580,1.005420,0.041732,-0.002723,-0.994564,0.493960,-0.037602,0.004243,0.000000,0.000000,0.000000,1.000000,-0.000000,-0.000000,-0.000000
1762201158.929142,-0.200225,-0.062580,1.005420,0.041732,-0.002723,-0.994564,0.493960,-0.037602,0.004243,0.000000,0.000000,0.000000,1.000000,-0.000000,-0.000000,-0.000000
1762201158.962172,-0.236746,-0.066826,1.005735,0.041732,-0.002723,-0.994564,0.493960,-0.037602,0.004243,0.000000,0.000000,0.000000,1.000000,-0.000000,-0.000000,-0.000000
1762201158.995170,-0.236746,-0.066826,1.005735,0.041732,-0.002723,-0.994564,0.493960,-0.037602,0.004243,0.000000,0.000000,0.000000,1.000000,-0.000000,-0.000000,-0.000000
1762201159.028168,-0.274587,-0.071671,1.005151,0.041732,-0.002723,-0.994564,0.623643,-0.040209,-0.009560,0.000000,0.000000,0.000000,1.000000,-0.000000,-0.000000,-0.000000
1762201159.061182,-0.274587,-0.071671,1.005151,0.041732,-0.002723,-0.994564,0.623643,-0.040209,-0.009560,0.000000,0.000000,0.000000,1.000000,-0.000000,-0.000000,-0.000000
1762201159.094164,-0.316773,-0.077072,1.004500,0.040699,-0.003763,-0.994581,0.623622,-0.040537,-0.009560,0.000000,0.000000,0.000000,1.000000,-0.000000,-0.000000,-0.000000
1762201159.127142,-0.316773,-0.077072,1.004500,0.040699,-0.003763,-0.994581,0.623622,-0.040537,-0.009560,0.000000,0.000000,0.000000,1.000000,-0.000000,-0.000000,-0.000000
1762201159.160161,-0.360336,-0.082650,1.003828,0.040699,-0.003763,-0.994581,0.623622,-0.040537,-0.009560,0.000000,0.000000,0.000000,1.000000,-0.000000,-0.000000,-0.000000
1762201159.193149,-0.360336,-0.082650,1.003828,0.040699,-0.003763,-0.994581,0.623622,-0.040537,-0.009560,0.000000,0.000000,0.000000,1.000000,-0.000000,-0.000000,-0.000000
1762201159.226190,-0.410118,-0.089881,1.004165,0.040815,-0.003558,-0.994607,0.757591,-0.035910,0.005068,0.000000,0.000000,0.000000,1.000000,-0.000000,-0.000000,-0.000000
1762201159.259147,-0.410118,-0.089881,1.004165,0.040815,-0.003558,-0.994607,0.757591,-0.035910,0.005068,0.000000,0.000000,0.000000,1.000000,-0.000000,-0.000000,-0.000000
1762201159.292192,-0.460055,-0.097134,1.004502,0.040815,-0.003558,-0.994607,0.757591,-0.035910,0.005068,0.000000,0.000000,0.000000,1.000000,-0.000000,-0.000000,-0.000000
1762201159.325203,-0.460055,-0.097134,1.004502,0.040815,-0.003558,-0.994607,0.757591,-0.035910,0.005068,0.000000,0.000000,0.000000,1.000000,-0.000000,-0.000000,-0.000000
1762201159.358227,-0.500800,-0.103052,1.004777,0.040815,-0.003558,-0.994607,0.757591,-0.035910,0.005068,0.000000,0.000000,0.000000,1.000000,-0.000000,-0.000000,-0.000000
1762201159.391281,-0.500800,-0.103052,1.004777,0.040815,-0.003558,-0.994607,0.757591,-0.035910,0.005068,0.000000,0.000000,0.000000,1.000000,-0.000000,-0.000000,-0.000000
1762201159.424176,-0.500800,-0.103052,1.004777,0.040815,-0.003558,-0.994607,0.757591,-0.035910,0.005068,0.000000,0.000000,0.000000,1.000000,-0.000000,-0.000000,-0.000000
1762201159.457182,-0.574261,-0.114641,1.006183,0.040799,-0.003415,-0.994617,0.913933,-0.031957,0.017283,0.000000,0.000000,0.000000,1.000000,-0.000000,-0.000000,-0.000000
1762201159.490205,-0.574261,-0.114641,1.006183,0.040799,-0.003415,-0.994617,0.913933,-0.031957,0.017283,0.000000,0.000000,0.000000,0.597091,-0.000000,-0.000000,-0.000000
1762201159.523163,-0.633699,-0.124018,1.007320,0.040799,-0.003415,-0.994617,0.913933,-0.031957,0.017283,0.000000,0.000000,0.000000,-0.000000,-0.000000,-0.000000,-0.000000
1762201159.556172,-0.633699,-0.124018,1.007320,0.040799,-0.003415,-0.994617,0.913933,-0.031957,0.017283,0.000000,0.000000,0.000000,-0.000000,-0.000000,-0.000000,-0.000000
1762201159.589176,-0.692469,-0.133290,1.008444,0.040799,-0.003415,-0.994617,0.913933,-0.031957,0.017283,0.000000,0.000000,0.000000,-0.000000,-0.000000,-0.000000,-0.000000
1762201159.622284,-0.752359,-0.142572,1.007941,0.040799,-0.003415,-0.994617,1.034124,-0.038972,-0.008597,0.000000,0.000000,0.000000,-0.000000,-0.000000,-0.000000,-0.000000
1762201159.655175,-0.752359,-0.142572,1.007941,0.040799,-0.003415,-0.994617,1.034124,-0.038972,-0.008597,0.000000,0.000000,0.000000,-0.000000,-0.000000,-0.000000,-0.000000
1762201159.688165,-0.752359,-0.142572,1.007941,0.040799,-0.003415,-0.994617,1.034124,-0.038972,-0.008597,0.000000,0.000000,0.000000,-0.000000,-0.000000,-0.000000,-0.000000
1762201159.721164,-0.827723,-0.154251,1.007307,0.040397,-0.003555,-0.994630,1.034121,-0.039034,-0.008597,0.000000,0.000000,0.000000,-0.000000,-0.000000,-0.000000,-0.000000
1762201159.754209,-0.827723,-0.154251,1.007307,0.040397,-0.003555,-0.994630,1.034121,-0.039034,-0.008597,0.000000,0.000000,0.000000,-0.000000,-0.000000,-0.000000,-0.000000
1762201159.787188,-0.896078,-0.164845,1.006733,0.040397,-0.003555,-0.994630,1.034121,-0.039034,-0.008597,0.000000,0.000000,0.000000,-0.000000,-0.000000,-0.000000,-0.000000
1762201159.820171,-0.896078,-0.164845,1.006733,0.040397,-0.003555,-0.994630,1.034121,-0.039034,-0.008597,0.000000,0.000000,0.000000,-0.000000,-0.000000,-0.000000,-0.000000
1762201159.853171,-0.959654,-0.173501,1.006254,-0.080336,-0.009138,-0.992146,0.965310,-0.054361,-0.007220,0.000000,0.000000,0.000000,-0.000000,-0.000000,-0.000000,-0.000000
1762201159.886200,-0.959654,-0.173501,1.006254,-0.080336,-0.009138,-0.992146,0.965310,-0.054361,-0.007220,0.000000,0.000000,0.000000,-0.000000,-0.000000,-0.000000,-0.000000
1762201159.919196,-1.023390,-0.182178,1.005773,-0.080336,-0.009138,-0.992146,0.965310,-0.054361,-0.007220,0.000000,0.000000,0.000000,-0.000000,-0.000000,-0.000000,-0.000000
1762201159.952165,-1.058312,-0.186932,1.005510,-0.080336,-0.009138,-0.992146,0.965310,-0.054361,-0.007220,0.000000,0.000000,0.000000,-0.000000,-0.000000,-0.000000,-0.000000
1762201159.985207,-1.058312,-0.186932,1.005510,-0.080336,-0.009138,-0.992146,0.965310,-0.054361,-0.007220,0.000000,0.000000,0.000000,-0.000000,-0.000000,-0.000000,-0.000000
1762201160.018194,-1.058312,-0.186932,1.005510,-0.080336,-0.009138,-0.992146,0.965310,-0.054361,-0.007220,0.000000,0.000000,0.000000,-0.000000,-0.000000,-0.000000,-0.000000
1762201160.051192,-1.107484,-0.194154,1.002212,-0.080336,-0.009138,-0.992146,0.493928,-0.022613,-0.032806,0.000000,0.000000,0.000000,-0.000000,-0.000000,-0.000000,-0.000000
1762201160.084158,-1.107484,-0.194154,1.002212,-0.080336,-0.009138,-0.992146,0.493928,-0.022613,-0.032806,0.000000,0.000000,0.000000,-0.000000,-0.000000,-0.000000,-0.000000
1762201160.117162,-1.138455,-0.198702,1.000136,-0.091917,-0.008677,-0.991116,0.493903,-0.023134,-0.032806,0.000000,0.000000,0.000000,-0.000000,-0.000000,-0.000000,-0.000000
1762201160.150149,-1.156483,-0.201350,0.998927,-0.091917,-0.008677,-0.991116,0.493903,-0.023134,-0.032806,0.000000,0.000000,0.000000,-0.000000,-0.000000,-0.000000,-0.000000
1762201160.183154,-1.156483,-0.201350,0.998927,-0.091917,-0.008677,-0.991116,0.493903,-0.023134,-0.032806,0.000000,0.000000,0.000000,-0.000000,-0.000000,-0.000000,-0.000000
1762201160.216204,-1.156483,-0.201350,0.998927,-0.091917,-0.008677,-0.991116,0.493903,-0.023134,-0.032806,0.000000,0.000000,0.000000,-0.000000,-0.000000,-0.000000,-0.000000
1762201160.249180,-1.174073,-0.205058,0.997024,-0.055790,-0.008158,-0.993810,0.187917,0.003010,-0.019895,0.000000,0.000000,0.000000,-0.000000,-0.000000,-0.000000,-0.000000
1762201160.282156,-1.174073,-0.205058,0.997024,-0.055790,-0.008158,-0.993810,0.187917,0.003010,-0.019895,0.000000,0.000000,0.000000,-1.000000,-0.000000,-0.000000,-0.000000
1762201160.315194,-1.186439,-0.207664,0.995686,-0.055790,-0.008158,-0.993810,0.187917,0.003010,-0.019895,0.000000,0.000000,0.000000,-1.000000,-0.000000,-0.000000,-0.000000
1762201160.348205,-1.186439,-0.207664,0.995686,-0.055790,-0.008158,-0.993810,0.187917,0.003010,-0.019895,0.000000,0.000000,0.000000,-1.000000,-0.000000,-0.000000,-0.000000
1762201160.381158,-1.198793,-0.210268,0.994349,-0.055790,-0.008158,-0.993810,0.187917,0.003010,-0.019895,0.000000,0.000000,0.000000,-1.000000,-0.000000,-0.000000,-0.000000
1762201160.414195,-1.198793,-0.210268,0.994349,-0.055790,-0.008158,-0.993810,0.187917,0.003010,-0.019895,0.000000,0.000000,0.000000,-1.000000,-0.000000,-0.000000,-0.000000
1762201160.447170,-1.200385,-0.211173,0.993933,-0.025687,-0.006551,-0.995045,0.027680,0.009339,-0.006646,0.000000,0.000000,0.000000,-1.000000,-0.000000,-0.000000,-0.000000
1762201160.480165,-1.201367,-0.211732,0.993676,-0.025687,-0.006551,-0.995045,0.027680,0.009339,-0.006646,0.000000,0.000000,0.000000,-1.000000,-0.000000,-0.000000,-0.000000
1762201160.513173,-1.201367,-0.211732,0.993676,-0.025687,-0.006551,-0.995045,0.027680,0.009339,-0.006646,0.000000,0.000000,0.000000,-1.000000,-0.000000,-0.000000,-0.000000
1762201160.546154,-1.202929,-0.212621,0.993267,-0.025687,-0.006551,-0.995045,0.027680,0.009339,-0.006646,0.000000,0.000000,0.000000,-1.000000,-0.000000,-0.000000,-0.000000
1762201160.579170,-1.202929,-0.212621,0.993267,-0.025687,-0.006551,-0.995045,0.027680,0.009339,-0.006646,0.000000,0.000000,0.000000,-1.000000,-0.000000,-0.000000,-0.000000
1762201160.612174,-1.204607,-0.213575,0.992828,-0.025687,-0.006551,-0.995045,0.027680,0.009339,-0.006646,0.000000,0.000000,0.000000,-1.000000,-0.000000,-0.000000,-0.000000
1762201160.645149,-1.204607,-0.213575,0.992828,-0.025687,-0.006551,-0.995045,0.027680,0.009339,-0.006646,0.000000,0.000000,0.000000,-1.000000,-0.000000,-0.000000,-0.000000
1762201160.678171,-1.204607,-0.213575,0.992828,-0.025687,-0.006551,-0.995045,0.027680,0.009339,-0.006646,0.000000,0.000000,0.000000,-1.000000,-0.000000,-0.000000,-0.000000
1762201160.711164,-1.196333,-0.212568,0.993436,-0.041820,-0.007875,-0.994517,-0.079121,0.005554,0.005789,0.000000,0.000000,0.000000,-1.000000,-0.000000,-0.000000,-0.000000
1762201160.744184,-1.194164,-0.212304,0.993596,-0.041820,-0.007875,-0.994517,-0.079121,0.005554,0.005789,0.000000,0.000000,0.000000,-1.000000,-0.000000,-0.000000,-0.000000
1762201160.777158,-1.194164,-0.212304,0.993596,-0.041820,-0.007875,-0.994517,-0.079121,0.005554,0.005789,0.000000,0.000000,0.000000,-1.000000,-0.000000,-0.000000,-0.000000
1762201160.810159,-1.181411,-0.210552,0.992985,-0.041820,-0.007875,-0.994517,-0.179288,0.009815,-0.008511,0.000000,0.000000,0.000000,-1.000000,-0.000000,-0.000000,-0.000000
1762201160.843186,-1.181411,-0.210552,0.992985,-0.041820,-0.007875,-0.994517,-0.179288,0.009815,-0.008511,0.000000,0.000000,0.000000,-1.000000,-0.000000,-0.000000,-0.000000
1762201160.876199,-1.170030,-0.208989,0.992441,-0.044195,-0.008165,-0.994389,-0.179284,0.009900,-0.008511,0.000000,0.000000,0.000000,-1.000000,-0.000000,-0.000000,-0.000000
1762201160.909150,-1.170030,-0.208989,0.992441,-0.044195,-0.008165,-0.994389,-0.179284,0.009900,-0.008511,0.000000,0.000000,0.000000,-1.000000,-0.000000,-0.000000,-0.000000
1762201160.942147,-1.159046,-0.207480,0.991915,-0.044195,-0.008165,-0.994389,-0.179284,0.009900,-0.008511,0.000000,0.000000,0.000000,-1.000000,-0.000000,-0.000000,-0.000000
1762201160.975202,-1.159046,-0.207480,0.991915,-0.044195,-0.008165,-0.994389,-0.179284,0.009900,-0.008511,0.000000,0.000000,0.000000,-1.000000,-0.000000,-0.000000,-0.000000
1762201161.008184,-1.146396,-0.205743,0.991310,-0.044195,-0.008165,-0.994389,-0.179284,0.009900,-0.008511,0.000000,0.000000,0.000000,-1.000000,-0.000000,-0.000000,-0.000000
1762201161.041162,-1.146396,-0.205743,0.991310,-0.044195,-0.008165,-0.994389,-0.179284,0.009900,-0.008511,0.000000,0.000000,0.000000,-1.000000,-0.000000,-0.000000,-0.000000
1762201161.074162,-1.123730,-0.201884,0.989941,-0.044945,-0.009051,-0.994363,-0.337295,0.007643,-0.020091,0.000000,0.000000,0.000000,-1.000000,-0.000000,-0.000000,-0.000000
1762201161.107299,-1.123730,-0.201884,0.989941,-0.044945,-0.009051,-0.994363,-0.337295,0.007643,-0.020091,0.000000,0.000000,0.000000,-1.000000,-0.000000,-0.000000,-0.000000
1762201161.140203,-1.102640,-0.198294,0.988667,-0.044945,-0.009051,-0.994363,-0.337295,0.007643,-0.020091,0.000000,0.000000,0.000000,-1.000000,-0.000000,-0.000000,-0.000000
1762201161.173228,-1.102640,-0.198294,0.988667,-0.044945,-0.009051,-0.994363,-0.337295,0.007643,-0.020091,0.000000,0.000000,0.000000,-1.000000,-0.000000,-0.000000,-0.000000
1762201161.206197,-1.070161,-0.192575,0.989484,-0.044945,-0.009051,-0.994363,-0.514077,0.008734,0.012735,0.000000,0.000000,0.000000,-1.000000,-0.000000,-0.000000,-0.000000
1762201161.239239,-1.070161,-0.192575,0.989484,-0.044945,-0.009051,-0.994363,-0.514077,0.008734,0.012735,0.000000,0.000000,0.000000,-1.000000,-0.000000,-0.000000,-0.000000
1762201161.272300,-1.035585,-0.186488,0.990353,-0.045233,-0.009093,-0.994420,-0.514090,0.007977,0.012735,0.000000,0.000000,0.000000,-1.000000,-0.000000,-0.000000,-0.000000
1762201161.305209,-1.035585,-0.186488,0.990353,-0.045233,-0.009093,-0.994420,-0.514090,0.007977,0.012735,0.000000,0.000000,0.000000,-1.000000,-0.000000,-0.000000,-0.000000
1762201161.338173,-1.001286,-0.180449,0.991216,-0.045233,-0.009093,-0.994420,-0.514090,0.007977,0.012735,0.000000,0.000000,0.000000,-1.000000,-0.000000,-0.000000,-0.000000
1762201161.371202,-1.001286,-0.180449,0.991216,-0.045233,-0.009093,-0.994420,-0.514090,0.007977,0.012735,0.000000,0.000000,0.000000,-1.000000,-0.000000,-0.000000,-0.000000
1762201161.404195,-0.968014,-0.174591,0.992053,-0.045233,-0.009093,-0.994420,-0.514090,0.007977,0.012735,0.000000,0.000000,0.000000,-1.000000,-0.000000,-0.000000,-0.000000
1762201161.437234,-0.968014,-0.174591,0.992053,-0.045233,-0.009093,-0.994420,-0.514090,0.007977,0.012735,0.000000,0.000000,0.000000,-1.000000,-0.000000,-0.000000,-0.000000
1762201161.470196,-0.921722,-0.166380,0.990391,-0.043430,-0.008687,-0.994538,-0.655919,0.008882,-0.023179,0.000000,0.000000,0.000000,-1.000000,-0.000000,-0.000000,-0.000000
1762201161.503160,-0.921722,-0.166380,0.990391,-0.043430,-0.008687,-0.994538,-0.655919,0.008882,-0.023179,0.000000,0.000000,0.000000,-1.000000,-0.000000,-0.000000,-0.000000
1762201161.536165,-0.880019,-0.158983,0.988895,-0.043430,-0.008687,-0.994538,-0.655919,0.008882,-0.023179,0.000000,0.000000,0.000000,-1.000000,-0.000000,-0.000000,-0.000000
1762201161.569192,-0.880019,-0.158983,0.988895,-0.043430,-0.008687,-0.994538,-0.655919,0.008882,-0.023179,0.000000,0.000000,0.000000,-1.000000,-0.000000,-0.000000,-0.000000
1762201161.602195,-0.843627,-0.152528,0.987589,-0.043430,-0.008687,-0.994538,-0.655919,0.008882,-0.023179,0.000000,0.000000,0.000000,-1.000000,-0.000000,-0.000000,-0.000000
1762201161.635158,-0.843627,-0.152528,0.987589,-0.043430,-0.008687,-0.994538,-0.655919,0.008882,-0.023179,0.000000,0.000000,0.000000,-1.000000,-0.000000,-0.000000,-0.000000
1762201161.668201,-0.780629,-0.141297,0.988184,-0.043430,-0.008687,-0.994538,-0.826406,0.010465,0.007680,0.000000,0.000000,0.000000,-1.000000,-0.000000,-0.000000,-0.000000
1762201161.701166,-0.780629,-0.141297,0.988184,-0.043430,-0.008687,-0.994538,-0.826406,0.010465,0.007680,0.000000,0.000000,0.000000,-1.000000,-0.000000,-0.000000,-0.000000
1762201161.734203,-0.730663,-0.132390,0.988655,-0.043357,-0.009931,-0.994525,-0.826406,0.010465,0.007680,0.000000,0.000000,0.000000,-1.000000,-0.000000,-0.000000,-0.000000
1762201161.767188,-0.730663,-0.132390,0.988655,-0.043357,-0.009931,-0.994525,-0.826406,0.010465,0.007680,0.000000,0.000000,0.000000,-1.000000,-0.000000,-0.000000,-0.000000
1762201161.800164,-0.661505,-0.119883,0.989309,-0.043357,-0.009931,-0.994525,-0.957204,0.009742,0.008902,0.000000,0.000000,0.000000,-1.000000,-0.000000,-0.000000,-0.000000
1762201161.833169,-0.661505,-0.119883,0.989309,-0.043357,-0.009931,-0.994525,-0.957204,0.009742,0.008902,0.000000,0.000000,0.000000,-1.000000,-0.000000,-0.000000,-0.000000
1762201161.866234,-0.600460,-0.108844,0.989886,-0.042453,-0.009746,-0.994594,-0.957209,0.009182,0.008902,0.000000,0.000000,0.000000,-0.000000,-0.000000,-0.000000,-0.000000
1762201161.899172,-0.600460,-0.108844,0.989886,-0.042453,-0.009746,-0.994594,-0.957209,0.009182,0.008902,0.000000,0.000000,0.000000,-0.000000,-0.000000,-0.000000,-0.000000
1762201161.932152,-0.544512,-0.098726,0.990414,-0.042453,-0.009746,-0.994594,-0.957209,0.009182,0.008902,0.000000,0.000000,0.000000,-0.000000,-0.000000,-0.000000,-0.000000
1762201161.965158,-0.544512,-0.098726,0.990414,-0.042453,-0.009746,-0.994594,-0.957209,0.009182,0.008902,0.000000,0.000000,0.000000,-0.000000,-0.000000,-0.000000,-0.000000
1762201161.998232,-0.471098,-0.085450,0.991108,-0.042453,-0.009746,-0.994594,-0.957209,0.009182,0.008902,0.000000,0.000000,0.000000,-0.000000,-0.000000,-0.000000,-0.000000
1762201162.031148,-0.471098,-0.085450,0.991108,-0.042453,-0.009746,-0.994594,-0.957209,0.009182,0.008902,0.000000,0.000000,0.000000,-0.000000,-0.000000,-0.000000,-0.000000
1762201162.064146,-0.405919,-0.073496,0.992675,-0.039393,-0.009762,-0.994735,-1.082964,0.007322,0.025603,0.000000,0.000000,0.000000,-0.000000,-0.000000,-0.000000,-0.000000
1762201162.097146,-0.405919,-0.073496,0.992675,-0.039393,-0.009762,-0.994735,-1.082964,0.007322,0.025603,0.000000,0.000000,0.000000,-0.000000,-0.000000,-0.000000,-0.000000
1762201162.130153,-0.330173,-0.059604,0.994495,-0.039393,-0.009762,-0.994735,-1.082964,0.007322,0.025603,0.000000,0.000000,0.000000,-0.000000,-0.000000,-0.000000,-0.000000
1762201162.163160,-0.330173,-0.059604,0.994495,-0.039393,-0.009762,-0.994735,-1.082964,0.007322,0.025603,0.000000,0.000000,0.000000,-0.000000,-0.000000,-0.000000,-0.000000
1762201162.196172,-0.260105,-0.046753,0.996180,-0.039393,-0.009762,-0.994735,-1.082964,0.007322,0.025603,0.000000,0.000000,0.000000,-0.000000,-0.000000,-0.000000,-0.000000
1762201162.229186,-0.260105,-0.046753,0.996180,-0.039393,-0.009762,-0.994735,-1.082964,0.007322,0.025603,0.000000,0.000000,0.000000,-0.000000,-0.000000,-0.000000,-0.000000
1762201162.262184,-0.200929,-0.037816,0.997224,0.092638,-0.001791,-0.991370,-0.879054,0.033964,0.015353,0.000000,0.000000,0.000000,-0.000000,-0.000000,-0.000000,-0.000000
1762201162.295307,-0.200929,-0.037816,0.997224,0.092638,-0.001791,-0.991370,-0.879054,0.033964,0.015353,0.000000,0.000000,0.000000,-0.000000,-0.000000,-0.000000,-0.000000
1762201162.328196,-0.145211,-0.029401,0.998207,0.092638,-0.001791,-0.991370,-0.879054,0.033964,0.015353,0.000000,0.000000,0.000000,-0.000000,-0.000000,-0.000000,-0.000000
1762201162.361191,-0.145211,-0.029401,0.998207,0.092638,-0.001791,-0.991370,-0.879054,0.033964,0.015353,0.000000,0.000000,0.000000,-0.000000,-0.000000,-0.000000,-0.000000
1762201162.394188,-0.115058,-0.023932,0.997871,0.092638,-0.001791,-0.991370,-0.434843,0.003944,-0.004771,0.000000,0.000000,0.000000,-0.000000,-0.000000,-0.000000,-0.000000
1762201162.427292,-0.115058,-0.023932,0.997871,0.092638,-0.001791,-0.991370,-0.434843,0.003944,-0.004771,0.000000,0.000000,0.000000,-0.000000,-0.000000,-0.000000,-0.000000
1762201162.460171,-0.087921,-0.019009,0.997569,0.083039,-0.001900,-0.992275,-0.434849,0.003205,-0.004771,0.000000,0.000000,0.000000,-0.000000,-0.000000,-0.000000,-0.000000
1762201162.493188,-0.087921,-0.019009,0.997569,0.083039,-0.001900,-0.992275,-0.434849,0.003205,-0.004771,0.000000,0.000000,0.000000,-0.000000,-0.000000,-0.000000,-0.000000
1762201162.526199,-0.087921,-0.019009,0.997569,0.083039,-0.001900,-0.992275,-0.434849,0.003205,-0.004771,0.000000,0.000000,0.000000,-0.000000,-0.000000,-0.000000,-0.000000
1762201162.559174,-0.057741,-0.013535,0.997232,0.083039,-0.001900,-0.992275,-0.434849,0.003205,-0.004771,0.000000,0.000000,0.000000,-0.000000,-0.000000,-0.000000,-0.000000
1762201162.592161,-0.032248,-0.008910,0.996948,0.083039,-0.001900,-0.992275,-0.434849,0.003205,-0.004771,0.000000,0.000000,0.000000,-0.000000,-0.000000,-0.000000,-0.000000
1762201162.625200,-0.032248,-0.008910,0.996948,0.083039,-0.001900,-0.992275,-0.434849,0.003205,-0.004771,0.000000,0.000000,0.000000,-0.000000,-0.000000,-0.000000,-0.000000
1762201162.658181,-0.023253,-0.006133,0.996732,0.083039,-0.001900,-0.992275,-0.130237,-0.014736,-0.003001,0.000000,0.000000,0.000000,-0.000000,-0.958912,-0.000000,-0.000000
1762201162.691169,-0.023253,-0.006133,0.996732,0.083039,-0.001900,-0.992275,-0.130237,-0.014736,-0.003001,0.000000,0.000000,0.000000,-0.000000,-1.000000,-0.000000,-0.000000
1762201162.724205,-0.023253,-0.006133,0.996732,0.083039,-0.001900,-0.992275,-0.130237,-0.014736,-0.003001,0.000000,0.000000,0.000000,-0.000000,-1.000000,-0.000000,-0.000000
1762201162.757167,-0.014859,-0.003541,0.996531,0.045403,-0.004797,-0.994625,-0.130242,-0.014693,-0.003001,0.000000,0.000000,0.000000,-0.000000,-1.000000,-0.000000,-0.000000
1762201162.790165,-0.006763,-0.001042,0.996337,0.045403,-0.004797,-0.994625,-0.130242,-0.014693,-0.003001,0.000000,0.000000,0.000000,-0.000000,-1.000000,-0.000000,-0.000000
1762201162.823224,-0.006763,-0.001042,0.996337,0.045403,-0.004797,-0.994625,-0.130242,-0.014693,-0.003001,0.000000,0.000000,0.000000,-0.000000,-1.000000,-0.000000,-0.000000
1762201162.856160,-0.006025,-0.000089,0.995653,0.014804,-0.017487,-0.995365,-0.020393,-0.018044,-0.015452,0.000000,0.000000,0.000000,-0.000000,-1.000000,-0.000000,-0.000000
1762201162.889202,-0.006025,-0.000089,0.995653,0.014804,-0.017487,-0.995365,-0.020393,-0.018044,-0.015452,0.000000,0.000000,0.000000,-0.000000,-1.000000,-0.000000,-0.000000
1762201162.922162,-0.006025,-0.000089,0.995653,0.014804,-0.017487,-0.995365,-0.020393,-0.018044,-0.015452,0.000000,0.000000,0.000000,-0.000000,-1.000000,-0.000000,-0.000000
1762201162.955195,-0.004524,0.001851,0.994261,0.014804,-0.017487,-0.995365,-0.020393,-0.018044,-0.015452,0.000000,0.000000,0.000000,-0.000000,-1.000000,-0.000000,-0.000000
1762201162.988154,-0.003457,0.003228,0.993273,0.014804,-0.017487,-0.995365,-0.020393,-0.018044,-0.015452,0.000000,0.000000,0.000000,-0.000000,-1.000000,-0.000000,-0.000000
1762201163.021178,-0.003457,0.003228,0.993273,0.014804,-0.017487,-0.995365,-0.020393,-0.018044,-0.015452,0.000000,0.000000,0.000000,-0.000000,-1.000000,-0.000000,-0.000000
1762201163.054159,-0.003457,0.003228,0.993273,0.014804,-0.017487,-0.995365,-0.020393,-0.018044,-0.015452,0.000000,0.000000,0.000000,-0.000000,-1.000000,-0.000000,-0.000000
1762201163.087181,-0.004888,0.011963,0.991606,0.005368,-0.044948,-0.994561,-0.003249,-0.125750,-0.023689,0.000000,0.000000,0.000000,-0.000000,-1.000000,-0.000000,-0.000000
1762201163.120151,-0.005622,0.016445,0.990751,0.005368,-0.044948,-0.994561,-0.003249,-0.125750,-0.023689,0.000000,0.000000,0.000000,-0.000000,-1.000000,-0.000000,-0.000000
1762201163.153148,-0.005622,0.016445,0.990751,0.005368,-0.044948,-0.994561,-0.003249,-0.125750,-0.023689,0.000000,0.000000,0.000000,-0.000000,-1.000000,-0.000000,-0.000000
1762201163.186182,-0.005622,0.016445,0.990751,0.005368,-0.044948,-0.994561,-0.003249,-0.125750,-0.023689,0.000000,0.000000,0.000000,-0.000000,-1.000000,-0.000000,-0.000000
1762201163.219222,-0.007535,0.028123,0.988522,0.005368,-0.044948,-0.994561,-0.003249,-0.125750,-0.023689,0.000000,0.000000,0.000000,-0.000000,-1.000000,-0.000000,-0.000000
1762201163.252191,-0.009173,0.038368,0.987331,0.005368,-0.044948,-0.994561,-0.007713,-0.259874,-0.029849,0.000000,0.000000,0.000000,-0.000000,-1.000000,-0.000000,-0.000000
1762201163.285204,-0.009173,0.038368,0.987331,0.005368,-0.044948,-0.994561,-0.007713,-0.259874,-0.029849,0.000000,0.000000,0.000000,-0.000000,-1.000000,-0.000000,-0.000000
1762201163.318151,-0.012856,0.061409,0.984652,0.001975,-0.046443,-0.994480,-0.007769,-0.259872,-0.029849,0.000000,0.000000,0.000000,-0.000000,-1.000000,-0.000000,-0.000000
1762201163.351174,-0.012856,0.061409,0.984652,0.001975,-0.046443,-0.994480,-0.007769,-0.259872,-0.029849,0.000000,0.000000,0.000000,-0.000000,-1.000000,-0.000000,-0.000000
1762201163.384165,-0.014938,0.074433,0.983138,0.001975,-0.046443,-0.994480,-0.007769,-0.259872,-0.029849,0.000000,0.000000,0.000000,-0.000000,-1.000000,-0.000000,-0.000000
1762201163.417202,-0.014938,0.074433,0.983138,0.001975,-0.046443,-0.994480,-0.007769,-0.259872,-0.029849,0.000000,0.000000,0.000000,-0.000000,-1.000000,-0.000000,-0.000000
1762201163.450165,-0.019252,0.102160,0.979918,0.001975,-0.046443,-0.994480,-0.014607,-0.428709,-0.049221,0.000000,0.000000,0.000000,-0.000000,-1.000000,-0.000000,-0.000000
1762201163.483237,-0.019252,0.102160,0.979918,0.001975,-0.046443,-0.994480,-0.014607,-0.428709,-0.049221,0.000000,0.000000,0.000000,-0.000000,-1.000000,-0.000000,-0.000000
1762201163.516206,-0.022965,0.126028,0.977147,0.001545,-0.048758,-0.994327,-0.014968,-0.428696,-0.049221,0.000000,0.000000,0.000000,-0.000000,-1.000000,-0.000000,-0.000000
1762201163.549202,-0.022965,0.126028,0.977147,0.001545,-0.048758,-0.994327,-0.014968,-0.428696,-0.049221,0.000000,0.000000,0.000000,-0.000000,-1.000000,-0.000000,-0.000000
1762201163.582268,-0.027447,0.154838,0.973801,0.001545,-0.048758,-0.994327,-0.014968,-0.428696,-0.049221,0.000000,0.000000,0.000000,-0.000000,-1.000000,-0.000000,-0.000000
1762201163.615202,-0.027447,0.154838,0.973801,0.001545,-0.048758,-0.994327,-0.014968,-0.428696,-0.049221,0.000000,0.000000,0.000000,-0.000000,-1.000000,-0.000000,-0.000000
1762201163.648255,-0.027447,0.154838,0.973801,0.001545,-0.048758,-0.994327,-0.014968,-0.428696,-0.049221,0.000000,0.000000,0.000000,-0.000000,-1.000000,-0.000000,-0.000000
1762201163.681260,-0.035609,0.207371,0.972515,0.001545,-0.048758,-0.994327,-0.019947,-0.567940,-0.013751,0.000000,0.000000,0.000000,-0.000000,-1.000000,-0.000000,-0.000000
1762201163.714183,-0.039988,0.235558,0.971824,0.001247,-0.048965,-0.994355,-0.019483,-0.567956,-0.013751,0.000000,0.000000,0.000000,-0.000000,-1.000000,-0.000000,-0.000000
1762201163.747251,-0.039988,0.235558,0.971824,0.001247,-0.048965,-0.994355,-0.019483,-0.567956,-0.013751,0.000000,0.000000,0.000000,-0.000000,-1.000000,-0.000000,-0.000000
1762201163.780174,-0.044909,0.267232,0.971049,0.001247,-0.048965,-0.994355,-0.019483,-0.567956,-0.013751,0.000000,0.000000,0.000000,-0.000000,-1.000000,-0.000000,-0.000000
1762201163.813186,-0.044909,0.267232,0.971049,0.001247,-0.048965,-0.994355,-0.019483,-0.567956,-0.013751,0.000000,0.000000,0.000000,-0.000000,-1.000000,-0.000000,-0.000000
1762201163.846160,-0.052602,0.316538,0.971665,0.001247,-0.048965,-0.994355,-0.023405,-0.695379,0.008595,0.000000,0.000000,0.000000,-0.000000,-0.958912,-0.000000,-0.000000
1762201163.879169,-0.052602,0.316538,0.971665,0.001247,-0.048965,-0.994355,-0.023405,-0.695379,0.008595,0.000000,0.000000,0.000000,-0.000000,-0.000000,-0.000000,-0.000000
1762201163.912177,-0.059588,0.361312,0.972225,0.002088,-0.048559,-0.994329,-0.024118,-0.695355,0.008595,0.000000,0.000000,0.000000,-0.000000,-0.000000,-0.000000,-0.000000
1762201163.945164,-0.059588,0.361312,0.972225,0.002088,-0.048559,-0.994329,-0.024118,-0.695355,0.008595,0.000000,0.000000,0.000000,-0.000000,-0.000000,-0.000000,-0.000000
1762201163.978183,-0.066461,0.405359,0.972776,0.002088,-0.048559,-0.994329,-0.024118,-0.695355,0.008595,0.000000,0.000000,0.000000,-0.000000,-0.000000,-0.000000,-0.000000
1762201164.011165,-0.066461,0.405359,0.972776,0.002088,-0.048559,-0.994329,-0.024118,-0.695355,0.008595,0.000000,0.000000,0.000000,-0.000000,-0.000000,-0.000000,-0.000000
1762201164.044190,-0.075953,0.462493,0.973267,0.002088,-0.048559,-0.994329,-0.020751,-0.836161,0.007091,0.000000,0.000000,0.000000,-0.000000,-0.000000,-0.000000,-0.000000
1762201164.077197,-0.075953,0.462493,0.973267,0.002088,-0.048559,-0.994329,-0.020751,-0.836161,0.007091,0.000000,0.000000,0.000000,-0.000000,-0.000000,-0.000000,-0.000000
1762201164.110162,-0.084467,0.513736,0.973707,0.002130,-0.043412,-0.994499,-0.021970,-0.836130,0.007091,0.000000,0.000000,0.000000,-0.000000,-0.000000,-0.000000,-0.000000
1762201164.143212,-0.084467,0.513736,0.973707,0.002130,-0.043412,-0.994499,-0.021970,-0.836130,0.007091,0.000000,0.000000,0.000000,-0.000000,-0.000000,-0.000000,-0.000000
1762201164.176174,-0.092886,0.564409,0.974143,0.002130,-0.043412,-0.994499,-0.021970,-0.836130,0.007091,0.000000,0.000000,0.000000,-0.000000,-0.000000,-0.000000,-0.000000
1762201164.209166,-0.092886,0.564409,0.974143,0.002130,-0.043412,-0.994499,-0.021970,-0.836130,0.007091,0.000000,0.000000,0.000000,-0.000000,-0.000000,-0.000000,-0.000000
1762201164.242154,-0.101218,0.619712,0.975342,0.002130,-0.043412,-0.994499,-0.028468,-0.687539,0.014751,0.000000,0.000000,0.000000,-0.000000,-0.000000,-0.000000,-0.000000
1762201164.275151,-0.101218,0.619712,0.975342,0.002130,-0.043412,-0.994499,-0.028468,-0.687539,0.014751,0.000000,0.000000,0.000000,-0.000000,-0.000000,-0.000000,-0.000000
1762201164.308151,-0.107618,0.662199,0.976263,-0.007513,0.074534,-0.992734,-0.027295,-0.687587,0.014751,0.000000,0.000000,0.000000,-0.000000,-0.000000,-0.000000,-0.000000
1762201164.341145,-0.107618,0.662199,0.976263,-0.007513,0.074534,-0.992734,-0.027295,-0.687587,0.014751,0.000000,0.000000,0.000000,-0.000000,-0.000000,-0.000000,-0.000000
1762201164.374147,-0.113838,0.703486,0.977158,-0.007513,0.074534,-0.992734,-0.027295,-0.687587,0.014751,0.000000,0.000000,0.000000,-0.000000,-0.000000,-0.000000,-0.000000
1762201164.407145,-0.113838,0.703486,0.977158,-0.007513,0.074534,-0.992734,-0.027295,-0.687587,0.014751,0.000000,0.000000,0.000000,-0.000000,-0.000000,-0.000000,-0.000000
1762201164.440159,-0.117224,0.727524,0.977034,-0.007513,0.074534,-0.992734,-0.017046,-0.345597,-0.001763,0.000000,0.000000,0.000000,-0.000000,-0.000000,-0.000000,-0.000000
1762201164.473193,-0.117224,0.727524,0.977034,-0.007513,0.074534,-0.992734,-0.017046,-0.345597,-0.001763,0.000000,0.000000,0.000000,-0.000000,-0.000000,-0.000000,-0.000000
1762201164.506177,-0.120168,0.748425,0.976926,-0.001629,0.055427,-0.993978,-0.017043,-0.345597,-0.001763,0.000000,0.000000,0.000000,-0.000000,-0.000000,-0.000000,-0.000000
1762201164.539211,-0.120168,0.748425,0.976926,-0.001629,0.055427,-0.993978,-0.017043,-0.345597,-0.001763,0.000000,0.000000,0.000000,-0.000000,-0.000000,-0.000000,-0.000000
1762201164.572157,-0.123786,0.774115,0.976794,-0.001629,0.055427,-0.993978,-0.017043,-0.345597,-0.001763,0.000000,0.000000,0.000000,-0.000000,1.000000,-0.000000,-0.000000
1762201164.605141,-0.123786,0.774115,0.976794,-0.001629,0.055427,-0.993978,-0.017043,-0.345597,-0.001763,0.000000,0.000000,0.000000,-0.000000,1.000000,-0.000000,-0.000000
1762201164.638151,-0.126737,0.795069,0.976686,-0.001629,0.055427,-0.993978,-0.017043,-0.345597,-0.001763,0.000000,0.000000,0.000000,-0.000000,1.000000,-0.000000,-0.000000
1762201164.671183,-0.126737,0.795069,0.976686,-0.001629,0.055427,-0.993978,-0.017043,-0.345597,-0.001763,0.000000,0.000000,0.000000,-0.000000,1.000000,-0.000000,-0.000000
1762201164.704160,-0.128222,0.804203,0.977038,-0.002187,0.031873,-0.995021,-0.003492,-0.124738,0.004746,0.000000,0.000000,0.000000,-0.000000,1.000000,-0.000000,-0.000000
1762201164.737195,-0.128222,0.804203,0.977038,-0.002187,0.031873,-0.995021,-0.003492,-0.124738,0.004746,0.000000,0.000000,0.000000,-0.000000,1.000000,-0.000000,-0.000000
1762201164.770139,-0.129455,0.811792,0.977331,-0.002187,0.031873,-0.995021,-0.003492,-0.124738,0.004746,0.000000,0.000000,0.000000,-0.000000,1.000000,-0.000000,-0.000000
1762201164.803168,-0.129455,0.811792,0.977331,-0.002187,0.031873,-0.995021,-0.003492,-0.124738,0.004746,0.000000,0.000000,0.000000,-0.000000,1.000000,-0.000000,-0.000000
1762201164.836197,-0.129441,0.812334,0.977740,-0.002187,0.031873,-0.995021,-0.001860,-0.008514,0.006577,0.000000,0.000000,0.000000,-0.000000,1.000000,-0.000000,-0.000000
1762201164.869197,-0.129441,0.812334,0.977740,-0.002187,0.031873,-0.995021,-0.001860,-0.008514,0.006577,0.000000,0.000000,0.000000,-0.000000,1.000000,-0.000000,-0.000000
1762201164.902207,-0.129426,0.812935,0.978193,-0.004201,0.033710,-0.994960,-0.001860,-0.008513,0.006577,0.000000,0.000000,0.000000,-0.000000,1.000000,-0.000000,-0.000000
1762201164.935150,-0.129426,0.812935,0.978193,-0.004201,0.033710,-0.994960,-0.001860,-0.008513,0.006577,0.000000,0.000000,0.000000,-0.000000,1.000000,-0.000000,-0.000000
1762201164.968179,-0.129411,0.813494,0.978615,-0.004201,0.033710,-0.994960,-0.001860,-0.008513,0.006577,0.000000,0.000000,0.000000,-0.000000,1.000000,-0.000000,-0.000000
1762201165.001168,-0.129411,0.813494,0.978615,-0.004201,0.033710,-0.994960,-0.001860,-0.008513,0.006577,0.000000,0.000000,0.000000,-0.000000,1.000000,-0.000000,-0.000000
1762201165.034171,-0.127687,0.805380,0.977987,-0.004201,0.033710,-0.994960,-0.002355,0.116065,-0.008801,0.000000,0.000000,0.000000,-0.000000,1.000000,-0.000000,-0.000000
1762201165.067143,-0.127687,0.805380,0.977987,-0.004201,0.033710,-0.994960,-0.002355,0.116065,-0.008801,0.000000,0.000000,0.000000,-0.000000,1.000000,-0.000000,-0.000000
1762201165.100170,-0.126094,0.797885,0.977406,-0.004865,0.036377,-0.994870,-0.002365,0.116064,-0.008801,0.000000,0.000000,0.000000,-0.000000,1.000000,-0.000000,-0.000000
1762201165.133193,-0.126094,0.797885,0.977406,-0.004865,0.036377,-0.994870,-0.002365,0.116064,-0.008801,0.000000,0.000000,0.000000,-0.000000,1.000000,-0.000000,-0.000000
1762201165.166159,-0.124679,0.791227,0.976890,-0.004865,0.036377,-0.994870,-0.002365,0.116064,-0.008801,0.000000,0.000000,0.000000,-0.000000,1.000000,-0.000000,-0.000000
1762201165.199178,-0.124679,0.791227,0.976890,-0.004865,0.036377,-0.994870,-0.002365,0.116064,-0.008801,0.000000,0.000000,0.000000,-0.000000,1.000000,-0.000000,-0.000000
1762201165.232144,-0.121337,0.774286,0.974069,-0.004865,0.036377,-0.994870,-0.001312,0.231692,-0.037848,0.000000,0.000000,0.000000,-0.000000,1.000000,-0.000000,-0.000000
1762201165.265165,-0.121337,0.774286,0.974069,-0.004865,0.036377,-0.994870,-0.001312,0.231692,-0.037848,0.000000,0.000000,0.000000,-0.000000,1.000000,-0.000000,-0.000000
1762201165.298145,-0.118206,0.758408,0.971425,-0.005540,0.036195,-0.994852,-0.001201,0.231692,-0.037848,0.000000,0.000000,0.000000,-0.000000,1.000000,-0.000000,-0.000000
1762201165.331142,-0.118206,0.758408,0.971425,-0.005540,0.036195,-0.994852,-0.001201,0.231692,-0.037848,0.000000,0.000000,0.000000,-0.000000,1.000000,-0.000000,-0.000000
1762201165.364178,-0.118206,0.758408,0.971425,-0.005540,0.036195,-0.994852,-0.001201,0.231692,-0.037848,0.000000,0.000000,0.000000,-0.000000,1.000000,-0.000000,-0.000000
1762201165.397211,-0.114585,0.740047,0.968368,-0.005540,0.036195,-0.994852,-0.001201,0.231692,-0.037848,0.000000,0.000000,0.000000,-0.000000,1.000000,-0.000000,-0.000000
1762201165.430239,-0.114585,0.740047,0.968368,-0.005540,0.036195,-0.994852,-0.001201,0.231692,-0.037848,0.000000,0.000000,0.000000,-0.000000,1.000000,-0.000000,-0.000000
1762201165.463171,-0.111006,0.720757,0.968285,-0.005540,0.036195,-0.994852,0.002159,0.353386,-0.001506,0.000000,0.000000,0.000000,-0.000000,1.000000,-0.000000,-0.000000
1762201165.496176,-0.107817,0.703565,0.968210,-0.005654,0.038285,-0.994769,0.002200,0.353386,-0.001506,0.000000,0.000000,0.000000,-0.000000,1.000000,-0.000000,-0.000000
1762201165.529207,-0.107817,0.703565,0.968210,-0.005654,0.038285,-0.994769,0.002200,0.353386,-0.001506,0.000000,0.000000,0.000000,-0.000000,1.000000,-0.000000,-0.000000
1762201165.562146,-0.102777,0.676396,0.968093,-0.005654,0.038285,-0.994769,0.002200,0.353386,-0.001506,0.000000,0.000000,0.000000,-0.000000,1.000000,-0.000000,-0.000000
1762201165.595161,-0.102777,0.676396,0.968093,-0.005654,0.038285,-0.994769,0.002200,0.353386,-0.001506,0.000000,0.000000,0.000000,-0.000000,1.000000,-0.000000,-0.000000
1762201165.628206,-0.102777,0.676396,0.968093,-0.005654,0.038285,-0.994769,0.002200,0.353386,-0.001506,0.000000,0.000000,0.000000,-0.000000,1.000000,-0.000000,-0.000000
1762201165.661144,-0.098269,0.652098,0.967987,-0.005654,0.038285,-0.994769,0.002200,0.353386,-0.001506,0.000000,0.000000,0.000000,-0.000000,1.000000,-0.000000,-0.000000
1762201165.694199,-0.092500,0.621010,0.968407,-0.005654,0.038285,-0.994769,0.003119,0.507378,0.006729,0.000000,0.000000,0.000000,-0.000000,1.000000,-0.000000,-0.000000
1762201165.727160,-0.092500,0.621010,0.968407,-0.005654,0.038285,-0.994769,0.003119,0.507378,0.006729,0.000000,0.000000,0.000000,-0.000000,1.000000,-0.000000,-0.000000
1762201165.760186,-0.086196,0.587043,0.968865,-0.005693,0.037555,-0.994783,0.003259,0.507377,0.006729,0.000000,0.000000,0.000000,-0.000000,1.000000,-0.000000,-0.000000
1762201165.793188,-0.086196,0.587043,0.968865,-0.005693,0.037555,-0.994783,0.003259,0.507377,0.006729,0.000000,0.000000,0.000000,-0.000000,1.000000,-0.000000,-0.000000
1762201165.826183,-0.079665,0.551552,0.967810,-0.005693,0.037555,-0.994783,0.005103,0.641907,-0.018756,0.000000,0.000000,0.000000,-0.000000,1.000000,-0.000000,-0.000000
1762201165.859218,-0.079665,0.551552,0.967810,-0.005693,0.037555,-0.994783,0.005103,0.641907,-0.018756,0.000000,0.000000,0.000000,-0.000000,1.000000,-0.000000,-0.000000
1762201165.892225,-0.071057,0.504776,0.966421,-0.005484,0.035788,-0.994956,0.003643,0.641917,-0.018756,0.000000,0.000000,0.000000,-0.000000,1.000000,-0.000000,-0.000000
1762201165.925226,-0.071057,0.504776,0.966421,-0.005484,0.035788,-0.994956,0.003643,0.641917,-0.018756,0.000000,0.000000,0.000000,-0.000000,1.000000,-0.000000,-0.000000
1762201165.958194,-0.066092,0.477791,0.965619,-0.005484,0.035788,-0.994956,0.003643,0.641917,-0.018756,0.000000,0.000000,0.000000,-0.000000,1.000000,-0.000000,-0.000000
1762201165.991184,-0.066092,0.477791,0.965619,-0.005484,0.035788,-0.994956,0.003643,0.641917,-0.018756,0.000000,0.000000,0.000000,-0.000000,1.000000,-0.000000,-0.000000
1762201166.024211,-0.066092,0.477791,0.965619,-0.005484,0.035788,-0.994956,0.003643,0.641917,-0.018756,0.000000,0.000000,0.000000,-0.000000,1.000000,-0.000000,-0.000000
1762201166.057194,-0.053427,0.408709,0.964833,-0.005484,0.035788,-0.994956,0.004825,0.761966,-0.008526,0.000000,0.000000,0.000000,-0.000000,1.000000,-0.000000,-0.000000
1762201166.090173,-0.047552,0.376664,0.964469,-0.006056,0.036534,-0.994890,0.005440,0.761962,-0.008526,0.000000,0.000000,0.000000,-0.000000,1.000000,-0.000000,-0.000000
1762201166.123157,-0.047552,0.376664,0.964469,-0.006056,0.036534,-0.994890,0.005440,0.761962,-0.008526,0.000000,0.000000,0.000000,-0.000000,0.753314,-0.000000,-0.000000
1762201166.156189,-0.047552,0.376664,0.964469,-0.006056,0.036534,-0.994890,0.005440,0.761962,-0.008526,0.000000,0.000000,0.000000,-0.000000,-0.000000,-0.000000,-0.000000
1762201166.189169,-0.033936,0.302398,0.963624,-0.006056,0.036534,-0.994890,0.005440,0.761962,-0.008526,0.000000,0.000000,0.000000,-0.000000,-0.000000,-0.000000,-0.000000
1762201166.222184,-0.033936,0.302398,0.963624,-0.006056,0.036534,-0.994890,0.005440,0.761962,-0.008526,0.000000,0.000000,0.000000,-0.000000,-0.000000,-0.000000,-0.000000
1762201166.255167,-0.024395,0.251426,0.963376,-0.006056,0.036534,-0.994890,0.003131,0.915751,-0.004372,0.000000,0.000000,0.000000,-0.000000,-0.000000,-0.000000,-0.000000
1762201166.288169,-0.017399,0.214050,0.963195,-0.005629,0.034533,-0.994954,0.003283,0.915750,-0.004372,0.000000,0.000000,0.000000,-0.000000,-0.000000,-0.000000,-0.000000
1762201166.321179,-0.017399,0.214050,0.963195,-0.005629,0.034533,-0.994954,0.003283,0.915750,-0.004372,0.000000,0.000000,0.000000,-0.000000,-0.000000,-0.000000,-0.000000
1762201166.354188,-0.017399,0.214050,0.963195,-0.005629,0.034533,-0.994954,0.003283,0.915750,-0.004372,0.000000,0.000000,0.000000,-0.000000,-0.000000,-0.000000,-0.000000
1762201166.387196,-0.001570,0.129483,0.962784,-0.005629,0.034533,-0.994954,0.003283,0.915750,-0.004372,0.000000,0.000000,0.000000,-0.000000,-0.000000,-0.000000,-0.000000
1762201166.420232,-0.001570,0.129483,0.962784,-0.005629,0.034533,-0.994954,0.003283,0.915750,-0.004372,0.000000,0.000000,0.000000,-0.000000,-0.000000,-0.000000,-0.000000
1762201166.453168,0.009849,0.066234,0.959132,-0.005629,0.034533,-0.994954,0.008896,0.888940,-0.050506,0.000000,0.000000,0.000000,-0.000000,-0.000000,-0.000000,-0.000000
1762201166.486155,0.009849,0.066234,0.959132,-0.005629,0.034533,-0.994954,0.008896,0.888940,-0.050506,0.000000,0.000000,0.000000,-0.000000,-0.000000,-0.000000,-0.000000
1762201166.519158,0.019333,0.013704,0.956100,0.005354,-0.076263,-0.992622,0.009020,0.888939,-0.050506,0.000000,0.000000,0.000000,-0.000000,-0.000000,-0.000000,-0.000000
1762201166.552163,0.019333,0.013704,0.956100,0.005354,-0.076263,-0.992622,0.009020,0.888939,-0.050506,0.000000,0.000000,0.000000,-0.000000,-0.000000,-0.000000,-0.000000
1762201166.585198,0.031600,-0.054241,0.952177,0.005354,-0.076263,-0.992622,0.009020,0.888939,-0.050506,0.000000,0.000000,0.000000,-0.000000,-0.000000,-0.000000,-0.000000
1762201166.618178,0.035709,-0.077000,0.950863,0.005354,-0.076263,-0.992622,0.009020,0.888939,-0.050506,0.000000,0.000000,0.000000,-0.000000,-0.000000,-0.000000,-0.000000
1762201166.651186,0.035709,-0.077000,0.950863,0.005354,-0.076263,-0.992622,0.009020,0.888939,-0.050506,0.000000,0.000000,0.000000,-0.000000,-0.000000,-0.000000,-0.000000
1762201166.684186,0.040867,-0.104769,0.948685,0.005354,-0.076263,-0.992622,0.002234,0.436907,-0.033699,0.000000,0.000000,0.000000,-0.000000,-0.000000,-0.000000,-0.000000
1762201166.717153,0.040867,-0.104769,0.948685,0.005354,-0.076263,-0.992622,0.002234,0.436907,-0.033699,0.000000,0.000000,0.000000,-0.000000,-0.000000,-0.000000,-0.000000
1762201166.750191,0.040867,-0.104769,0.948685,0.005354,-0.076263,-0.992622,0.002234,0.436907,-0.033699,0.000000,0.000000,0.000000,-0.000000,-0.000000,-0.000000,-0.000000
1762201166.783146,0.048544,-0.146097,0.945443,0.002013,-0.081860,-0.992271,0.001224,0.436911,-0.033699,0.000000,0.000000,0.000000,-0.000000,-0.000000,-0.000000,-0.000000
1762201166.816150,0.051333,-0.161112,0.944265,0.002013,-0.081860,-0.992271,0.001224,0.436911,-0.033699,0.000000,0.000000,0.000000,-0.000000,-0.000000,-0.000000,-0.000000
1762201166.849149,0.051333,-0.161112,0.944265,0.002013,-0.081860,-0.992271,0.001224,0.436911,-0.033699,0.000000,0.000000,0.000000,-0.000000,-0.000000,-0.000000,-0.000000
1762201166.882153,0.054170,-0.171055,0.943691,0.001561,-0.053423,-0.994219,-0.013823,0.150489,-0.008384,0.000000,0.000000,0.000000,-0.000000,-0.000000,-0.000000,-0.000000
1762201166.915169,0.054170,-0.171055,0.943691,0.001561,-0.053423,-0.994219,-0.013823,0.150489,-0.008384,0.000000,0.000000,0.000000,-0.000000,-0.000000,-0.000000,-0.000000
1762201166.948148,0.057077,-0.181240,0.943104,0.001561,-0.053423,-0.994219,-0.013823,0.150489,-0.008384,0.000000,0.000000,0.000000,-0.000000,-0.000000,-0.000000,-0.000000
1762201166.981216,0.057077,-0.181240,0.943104,0.001561,-0.053423,-0.994219,-0.013823,0.150489,-0.008384,0.000000,0.000000,0.000000,-0.000000,-0.000000,-0.000000,-0.000000
1762201167.014146,0.059627,-0.190173,0.942588,0.001561,-0.053423,-0.994219,-0.013823,0.150489,-0.008384,0.000000,0.000000,0.000000,-0.000000,-0.000000,-0.000000,-0.000000
1762201167.047168,0.059627,-0.190173,0.942588,0.001561,-0.053423,-0.994219,-0.013823,0.150489,-0.008384,0.000000,0.000000,0.000000,-0.000000,-0.000000,-0.000000,-0.000000
1762201167.080215,0.060855,-0.190937,0.940627,0.001561,-0.053423,-0.994219,-0.014375,0.013193,-0.026453,0.000000,0.000000,0.000000,-0.000000,-0.000000,-0.000000,-0.000000
1762201167.113200,0.060855,-0.190937,0.940627,0.001561,-0.053423,-0.994219,-0.014375,0.013193,-0.026453,0.000000,0.000000,0.000000,-0.000000,-0.000000,-0.000000,-0.000000
1762201167.146161,0.061878,-0.191572,0.938995,0.001120,-0.025287,-0.995358,-0.014381,0.013187,-0.026453,0.000000,0.000000,0.000000,-0.000000,-0.000000,-0.000000,-0.000000
1762201167.179186,0.061878,-0.191572,0.938995,0.001120,-0.025287,-0.995358,-0.014381,0.013187,-0.026453,0.000000,0.000000,0.000000,-0.000000,-0.000000,-0.000000,-0.000000
1762201167.212184,0.062947,-0.192237,0.937288,0.001120,-0.025287,-0.995358,-0.014381,0.013187,-0.026453,0.000000,0.000000,0.000000,-0.000000,-0.000000,-0.000000,-0.000000
1762201167.245209,0.062947,-0.192237,0.937288,0.001120,-0.025287,-0.995358,-0.014381,0.013187,-0.026453,0.000000,0.000000,0.000000,-0.000000,-0.000000,-0.000000,-0.000000
1762201167.278152,0.063267,-0.190362,0.938843,-0.000136,-0.011219,-0.995625,-0.009208,-0.024876,0.021687,0.000000,0.000000,0.000000,-0.000000,-0.000000,-0.000000,-0.000000
1762201167.311176,0.063267,-0.190362,0.938843,-0.000136,-0.011219,-0.995625,-0.009208,-0.024876,0.021687,0.000000,0.000000,0.000000,-0.000000,-0.000000,-0.000000,-0.000000
1762201167.344202,0.063537,-0.188774,0.940160,-0.000136,-0.011219,-0.995625,-0.009208,-0.024876,0.021687,0.000000,0.000000,0.000000,-0.000000,-0.000000,-0.000000,-0.000000
1762201167.377264,0.063537,-0.188774,0.940160,-0.000136,-0.011219,-0.995625,-0.009208,-0.024876,0.021687,0.000000,0.000000,0.000000,-0.000000,-0.000000,-0.000000,-0.000000
1762201167.410141,0.063845,-0.186967,0.941658,-0.000136,-0.011219,-0.995625,-0.009208,-0.024876,0.021687,0.000000,0.000000,0.000000,-0.000000,-0.000000,-0.000000,-0.000000
1762201167.443150,0.063845,-0.186967,0.941658,-0.000136,-0.011219,-0.995625,-0.009208,-0.024876,0.021687,0.000000,0.000000,0.000000,-0.000000,-0.000000,-0.000000,-0.000000
1762201167.476171,0.063979,-0.185097,0.942192,-0.000921,-0.006050,-0.995646,-0.007020,-0.026645,0.007842,0.000000,0.000000,0.000000,-0.000000,-0.000000,-0.000000,-0.000000
1762201167.509170,0.063979,-0.185097,0.942192,-0.000921,-0.006050,-0.995646,-0.007020,-0.026645,0.007842,0.000000,0.000000,0.000000,-0.000000,-0.000000,-0.000000,-0.000000
1762201167.542143,0.064106,-0.183309,0.942702,-0.000921,-0.006050,-0.995646,-0.007020,-0.026645,0.007842,0.000000,0.000000,0.000000,-0.000000,-0.000000,-0.000000,-0.000000
1762201167.575169,0.064106,-0.183309,0.942702,-0.000921,-0.006050,-0.995646,-0.007020,-0.026645,0.007842,0.000000,0.000000,0.000000,-0.000000,-0.000000,-0.000000,-0.000000
1762201167.608275,0.064239,-0.181458,0.943230,-0.000921,-0.006050,-0.995646,-0.007020,-0.026645,0.007842,0.000000,0.000000,0.000000,-0.000000,-0.000000,-0.000000,-0.000000
1762201167.641185,0.064239,-0.181458,0.943230,-0.000921,-0.006050,-0.995646,-0.007020,-0.026645,0.007842,0.000000,0.000000,0.000000,-0.000000,-0.000000,-0.000000,-0.000000
1762201167.674177,0.064270,-0.180308,0.943997,-0.000921,-0.006050,-0.995646,-0.004079,-0.018804,0.012827,0.000000,0.000000,0.000000,-0.000000,-0.000000,-0.000000,-0.000000
1762201167.707212,0.064270,-0.180308,0.943997,-0.000921,-0.006050,-0.995646,-0.004079,-0.018804,0.012827,0.000000,0.000000,0.000000,-0.000000,-0.000000,-0.000000,-0.000000
1762201167.740190,0.064306,-0.178980,0.944883,-0.000523,-0.005783,-0.995703,-0.004057,-0.018809,0.012827,0.000000,0.000000,0.000000,-0.000000,-0.000000,-0.000000,-0.000000
1762201167.773161,0.064306,-0.178980,0.944883,-0.000523,-0.005783,-0.995703,-0.004057,-0.018809,0.012827,0.000000,0.000000,0.000000,-0.000000,-0.000000,-0.000000,-0.000000
1762201167.806280,0.064347,-0.177510,0.945863,-0.000523,-0.005783,-0.995703,-0.004057,-0.018809,0.012827,0.000000,0.000000,0.000000,-0.000000,-0.000000,-0.000000,-0.000000
1762201167.839301,0.064347,-0.177510,0.945863,-0.000523,-0.005783,-0.995703,-0.004057,-0.018809,0.012827,0.000000,0.000000,0.000000,-0.000000,-0.000000,-0.000000,-0.000000
1762201167.872218,0.064406,-0.176686,0.946719,-0.000523,-0.005783,-0.995703,-0.003339,-0.012679,0.013592,0.000000,0.000000,0.000000,-0.000000,-0.000000,-0.000000,-0.000000
1762201167.905164,0.064406,-0.176686,0.946719,-0.000523,-0.005783,-0.995703,-0.003339,-0.012679,0.013592,0.000000,0.000000,0.000000,-0.000000,-0.000000,-0.000000,-0.000000
1762201167.938199,0.064469,-0.175827,0.947613,-0.000960,-0.005182,-0.995669,-0.003349,-0.012676,0.013592,0.000000,0.000000,0.000000,-0.000000,-0.000000,-0.000000,-0.000000
1762201167.971264,0.064469,-0.175827,0.947613,-0.000960,-0.005182,-0.995669,-0.003349,-0.012676,0.013592,0.000000,0.000000,0.000000,-0.000000,-0.000000,-0.000000,-0.000000
1762201168.004221,0.064534,-0.174933,0.948542,-0.000960,-0.005182,-0.995669,-0.003349,-0.012676,0.013592,0.000000,0.000000,0.000000,-0.000000,-0.000000,-0.000000,-0.000000
1762201168.037162,0.064534,-0.174933,0.948542,-0.000960,-0.005182,-0.995669,-0.003349,-0.012676,0.013592,0.000000,0.000000,0.000000,-0.000000,-0.000000,-0.000000,-0.000000
1762201168.070181,0.064535,-0.174224,0.949434,-0.000960,-0.005182,-0.995669,-0.002098,-0.011040,0.014146,0.000000,0.000000,0.000000,-0.000000,-0.000000,-0.000000,-0.000000
1762201168.103157,0.064535,-0.174224,0.949434,-0.000960,-0.005182,-0.995669,-0.002098,-0.011040,0.014146,0.000000,0.000000,0.000000,-0.000000,-0.000000,-0.000000,-0.000000
1762201168.136248,0.064536,-0.173477,0.950374,-0.000871,-0.005958,-0.995725,-0.002083,-0.011042,0.014146,0.000000,0.000000,0.000000,-0.000000,-0.000000,-0.000000,-0.000000
1762201168.169219,0.064536,-0.173477,0.950374,-0.000871,-0.005958,-0.995725,-0.002083,-0.011042,0.014146,0.000000,0.000000,0.000000,-0.000000,-0.000000,-0.000000,-0.000000
1762201168.202171,0.064538,-0.172773,0.951260,-0.000871,-0.005958,-0.995725,-0.002083,-0.011042,0.014146,0.000000,0.000000,0.000000,-0.000000,-0.000000,-0.000000,-0.000000
1762201168.235152,0.064538,-0.172773,0.951260,-0.000871,-0.005958,-0.995725,-0.002083,-0.011042,0.014146,0.000000,0.000000,0.000000,-0.000000,-0.000000,-0.000000,-0.000000
1762201168.268183,0.064622,-0.171925,0.949472,-0.000871,-0.005958,-0.995725,-0.003090,-0.010620,-0.023196,0.000000,0.000000,0.000000,-0.000000,-0.000000,-0.000000,-0.000000
1762201168.301215,0.064622,-0.171925,0.949472,-0.000871,-0.005958,-0.995725,-0.003090,-0.010620,-0.023196,0.000000,0.000000,0.000000,-0.000000,-0.000000,-0.000000,-0.000000
1762201168.334141,0.064687,-0.171262,0.948076,-0.000855,-0.005373,-0.995646,-0.003109,-0.010615,-0.023196,0.000000,0.000000,0.000000,-0.000000,-0.000000,-0.000000,-0.000000
1762201168.367168,0.064687,-0.171262,0.948076,-0.000855,-0.005373,-0.995646,-0.003109,-0.010615,-0.023196,0.000000,0.000000,0.000000,-0.000000,-0.000000,-0.000000,-0.000000
1762201168.400141,0.064754,-0.170587,0.946654,-0.000855,-0.005373,-0.995646,-0.003109,-0.010615,-0.023196,0.000000,0.000000,0.000000,-0.000000,-0.000000,-0.000000,-0.000000
1762201168.433189,0.064754,-0.170587,0.946654,-0.000855,-0.005373,-0.995646,-0.003109,-0.010615,-0.023196,0.000000,0.000000,0.000000,-0.000000,-0.000000,-0.000000,-0.000000
