time,x,y,z,roll,pitch,yaw,linx,liny,linz,angx,angy,angz,cmd_linx,cmd_liny,cmd_linz,cmd_angz
1762203438.482150,-0.014323,-0.053995,0.958104,0.016311,-0.007719,-2.709894,-0.006301,0.009585,0.085550,0.000000,0.000000,0.000000,0.000000,0.000000,0.000000,0.000000
1762203438.515469,-0.013757,-0.053530,0.962018,0.016311,-0.007719,-2.709894,-0.011219,-0.002926,0.061929,0.000000,0.000000,0.000000,0.000000,0.000000,0.000000,0.000000
1762203438.548814,-0.013757,-0.053530,0.962018,0.016311,-0.007719,-2.709894,-0.011219,-0.002926,0.061929,0.000000,0.000000,0.000000,0.000000,0.000000,0.000000,0.000000
1762203438.582175,-0.013757,-0.053530,0.962018,0.016311,-0.007719,-2.709894,-0.011219,-0.002926,0.061929,0.000000,0.000000,0.000000,0.000000,0.000000,0.000000,0.000000
1762203438.615431,-0.013058,-0.052957,0.966844,0.015229,-0.007443,-2.710871,-0.011216,-0.002937,0.061929,0.000000,0.000000,0.000000,0.000000,0.000000,0.000000,0.000000
1762203438.648825,-0.013058,-0.052957,0.966844,0.015229,-0.007443,-2.710871,-0.011216,-0.002937,0.061929,0.000000,0.000000,0.000000,0.000000,0.000000,0.000000,0.000000
1762203438.682161,-0.012523,-0.052519,0.970539,0.015229,-0.007443,-2.710871,-0.011216,-0.002937,0.061929,0.000000,0.000000,0.000000,0.000000,0.000000,0.000000,0.000000
1762203438.715465,-0.012523,-0.052519,0.970539,0.015229,-0.007443,-2.710871,-0.011216,-0.002937,0.061929,0.000000,0.000000,0.000000,0.000000,0.000000,0.000000,0.000000
1762203438.748813,-0.011930,-0.051653,0.973426,0.015229,-0.007443,-2.710871,-0.013296,-0.007957,0.042650,0.000000,0.000000,0.000000,0.000000,0.000000,0.000000,0.000000
1762203438.782084,-0.011391,-0.050867,0.976051,0.011466,-0.007269,-2.709904,-0.013304,-0.007944,0.042650,0.000000,0.000000,0.000000,0.000000,0.000000,0.000000,0.000000
1762203438.815477,-0.011391,-0.050867,0.976051,0.011466,-0.007269,-2.709904,-0.013304,-0.007944,0.042650,0.000000,0.000000,0.000000,0.000000,0.000000,0.000000,0.000000
1762203438.848796,-0.010798,-0.050001,0.978940,0.011466,-0.007269,-2.709904,-0.013304,-0.007944,0.042650,0.000000,0.000000,0.000000,0.000000,0.000000,0.000000,0.000000
1762203438.882122,-0.010798,-0.050001,0.978940,0.011466,-0.007269,-2.709904,-0.013304,-0.007944,0.042650,0.000000,0.000000,0.000000,0.000000,0.000000,0.000000,0.000000
1762203438.915440,-0.010110,-0.048800,0.980027,0.013214,-0.006611,-2.709816,-0.016604,-0.011827,0.016007,0.000000,0.000000,0.000000,0.000000,0.000000,0.000000,0.000000
1762203438.948785,-0.010110,-0.048800,0.980027,0.013214,-0.006611,-2.709816,-0.016604,-0.011827,0.016007,0.000000,0.000000,0.000000,0.000000,0.000000,0.000000,0.000000
1762203438.982138,-0.009457,-0.047660,0.981059,0.013214,-0.006611,-2.709816,-0.016604,-0.011827,0.016007,0.000000,0.000000,0.000000,0.000000,0.000000,0.000000,0.000000
1762203439.015601,-0.009457,-0.047660,0.981059,0.013214,-0.006611,-2.709816,-0.016604,-0.011827,0.016007,0.000000,0.000000,0.000000,0.000000,0.000000,0.000000,0.000000
1762203439.048804,-0.009457,-0.047660,0.981059,0.013214,-0.006611,-2.709816,-0.016604,-0.011827,0.016007,0.000000,0.000000,0.000000,0.000000,0.000000,0.000000,0.000000
1762203439.082160,-0.008678,-0.046301,0.982288,0.013214,-0.006611,-2.709816,-0.016604,-0.011827,0.016007,0.000000,0.000000,0.000000,0.000000,0.000000,0.000000,0.000000
1762203439.115439,-0.008023,-0.045228,0.983267,0.013214,-0.006611,-2.709816,-0.019324,-0.012955,0.018099,0.000000,0.000000,0.000000,0.000000,0.000000,0.000000,0.000000
1762203439.148833,-0.008023,-0.045228,0.983267,0.013214,-0.006611,-2.709816,-0.019324,-0.012955,0.018099,0.000000,0.000000,0.000000,0.000000,0.000000,0.000000,0.000000
1762203439.182123,-0.008023,-0.045228,0.983267,0.013214,-0.006611,-2.709816,-0.019324,-0.012955,0.018099,0.000000,0.000000,0.000000,0.000000,0.000000,0.000000,0.000000
1762203439.215497,-0.007119,-0.043749,0.984615,0.011036,-0.007174,-2.709490,-0.019328,-0.012949,0.018099,0.000000,0.000000,0.000000,0.000000,0.000000,0.000000,0.000000
1762203439.248777,-0.007119,-0.043749,0.984615,0.011036,-0.007174,-2.709490,-0.019328,-0.012949,0.018099,0.000000,0.000000,0.000000,0.000000,0.000000,0.000000,0.000000
1762203439.282115,-0.006272,-0.042362,0.985879,0.011036,-0.007174,-2.709490,-0.019328,-0.012949,0.018099,0.000000,0.000000,0.000000,0.000000,0.000000,0.000000,0.000000
1762203439.315454,-0.006272,-0.042362,0.985879,0.011036,-0.007174,-2.709490,-0.019328,-0.012949,0.018099,0.000000,0.000000,0.000000,0.000000,0.000000,0.000000,0.000000
1762203439.348868,-0.005585,-0.040756,0.989219,0.011036,-0.007174,-2.709490,-0.020605,-0.018597,0.053074,0.000000,0.000000,0.000000,0.000000,0.000000,0.000000,0.000000
1762203439.382138,-0.005585,-0.040756,0.989219,0.011036,-0.007174,-2.709490,-0.020605,-0.018597,0.053074,0.000000,0.000000,0.000000,0.000000,0.000000,0.000000,0.000000
1762203439.415457,-0.004837,-0.039009,0.992853,0.012268,-0.005998,-2.710191,-0.020592,-0.018611,0.053074,0.000000,0.000000,0.000000,0.000000,0.000000,0.000000,0.000000
1762203439.448823,-0.004837,-0.039009,0.992853,0.012268,-0.005998,-2.710191,-0.020592,-0.018611,0.053074,0.000000,0.000000,0.000000,0.000000,0.000000,0.000000,0.000000
1762203439.482096,-0.004050,-0.037170,0.996679,0.012268,-0.005998,-2.710191,-0.020592,-0.018611,0.053074,0.000000,0.000000,0.000000,0.000000,0.000000,0.000000,0.000000
1762203439.515434,-0.004050,-0.037170,0.996679,0.012268,-0.005998,-2.710191,-0.020592,-0.018611,0.053074,0.000000,0.000000,0.000000,0.000000,0.000000,0.000000,0.000000
1762203439.548811,-0.003658,-0.035733,1.000499,0.010390,-0.004968,-2.710580,-0.016026,-0.019145,0.064061,0.000000,0.000000,0.000000,0.000000,0.000000,0.000000,0.000000
1762203439.582133,-0.003658,-0.035733,1.000499,0.010390,-0.004968,-2.710580,-0.016026,-0.019145,0.064061,0.000000,0.000000,0.000000,0.000000,0.000000,0.000000,0.000000
1762203439.615460,-0.003219,-0.034121,1.004786,0.010390,-0.004968,-2.710580,-0.016026,-0.019145,0.064061,0.000000,0.000000,0.000000,0.000000,0.000000,0.000000,0.000000
1762203439.648802,-0.003219,-0.034121,1.004786,0.010390,-0.004968,-2.710580,-0.016026,-0.019145,0.064061,0.000000,0.000000,0.000000,0.000000,0.000000,0.000000,0.000000
1762203439.682100,-0.002780,-0.032509,1.009073,0.010390,-0.004968,-2.710580,-0.016026,-0.019145,0.064061,0.000000,0.000000,0.000000,0.000000,0.000000,0.000000,0.000000
1762203439.715475,-0.002780,-0.032509,1.009073,0.010390,-0.004968,-2.710580,-0.016026,-0.019145,0.064061,0.000000,0.000000,0.000000,0.000000,0.000000,0.000000,0.000000
1762203439.748787,-0.002678,-0.031124,1.010822,0.010390,-0.004968,-2.710580,-0.010220,-0.018502,0.026614,0.000000,0.000000,0.000000,0.000000,0.000000,0.000000,0.000000
1762203439.782111,-0.002678,-0.031124,1.010822,0.010390,-0.004968,-2.710580,-0.010220,-0.018502,0.026614,0.000000,0.000000,0.000000,0.000000,0.000000,0.000000,0.000000
1762203439.815437,-0.002566,-0.029605,1.012739,0.010264,-0.006174,-2.710341,-0.010224,-0.018500,0.026614,0.000000,0.000000,0.000000,0.000000,0.000000,0.000000,0.000000
1762203439.848941,-0.002481,-0.028458,1.014188,0.010264,-0.006174,-2.710341,-0.010224,-0.018500,0.026614,0.000000,0.000000,0.000000,0.000000,0.000000,0.000000,0.000000
1762203439.882088,-0.002481,-0.028458,1.014188,0.010264,-0.006174,-2.710341,-0.010224,-0.018500,0.026614,0.000000,0.000000,0.000000,0.000000,0.000000,0.000000,0.000000
1762203439.915455,-0.002481,-0.028458,1.014188,0.010264,-0.006174,-2.710341,-0.010224,-0.018500,0.026614,0.000000,0.000000,0.000000,0.000000,0.000000,0.000000,0.000000
1762203439.948762,-0.002296,-0.026954,1.017156,0.010264,-0.006174,-2.710341,-0.010715,-0.017342,0.039940,0.000000,0.000000,0.000000,0.000000,0.000000,0.000000,0.000000
1762203439.982131,-0.002296,-0.026954,1.017156,0.010264,-0.006174,-2.710341,-0.010715,-0.017342,0.039940,0.000000,0.000000,0.000000,0.000000,0.000000,0.000000,0.000000
1762203440.015460,-0.002119,-0.025510,1.020007,0.008490,-0.006641,-2.710165,-0.010718,-0.017340,0.039940,0.000000,0.000000,0.000000,0.000000,0.000000,0.000000,0.000000
1762203440.048789,-0.002119,-0.025510,1.020007,0.008490,-0.006641,-2.710165,-0.010718,-0.017340,0.039940,0.000000,0.000000,0.000000,0.000000,0.000000,0.000000,0.000000
1762203440.082111,-0.001953,-0.024161,1.022670,0.008490,-0.006641,-2.710165,-0.010718,-0.017340,0.039940,0.000000,0.000000,0.000000,0.000000,0.000000,0.000000,0.000000
1762203440.115453,-0.001953,-0.024161,1.022670,0.008490,-0.006641,-2.710165,-0.010718,-0.017340,0.039940,0.000000,0.000000,0.000000,0.000000,0.000000,0.000000,0.000000
1762203440.148789,-0.001839,-0.023027,1.024387,0.008490,-0.006641,-2.710165,-0.009382,-0.015927,0.027830,0.000000,0.000000,0.000000,0.000000,0.000000,0.000000,0.000000
1762203440.182110,-0.001839,-0.023027,1.024387,0.008490,-0.006641,-2.710165,-0.009382,-0.015927,0.027830,0.000000,0.000000,0.000000,0.000000,0.000000,0.000000,0.000000
1762203440.215455,-0.001709,-0.021751,1.026317,0.007960,-0.006605,-2.711235,-0.009365,-0.015937,0.027830,0.000000,0.000000,0.000000,0.000000,0.000000,0.000000,0.000000
1762203440.248759,-0.001594,-0.020615,1.028036,0.007960,-0.006605,-2.711235,-0.009365,-0.015937,0.027830,0.000000,0.000000,0.000000,0.000000,0.000000,0.000000,0.000000
1762203440.282117,-0.001594,-0.020615,1.028036,0.007960,-0.006605,-2.711235,-0.009365,-0.015937,0.027830,0.000000,0.000000,0.000000,0.000000,0.000000,0.000000,0.000000
1762203440.315491,-0.001594,-0.020615,1.028036,0.007960,-0.006605,-2.711235,-0.009365,-0.015937,0.027830,0.000000,0.000000,0.000000,0.000000,0.000000,0.000000,0.000000
1762203440.348786,-0.001456,-0.019245,1.030109,0.007960,-0.006605,-2.711235,-0.009365,-0.015937,0.027830,0.000000,0.000000,0.000000,0.000000,0.000000,0.000000,0.000000
1762203440.382106,-0.001418,-0.018406,1.031342,0.010518,-0.006709,-2.709511,-0.006596,-0.012775,0.021098,0.000000,0.000000,0.000000,0.000000,0.000000,0.000000,0.000000
1762203440.415502,-0.001418,-0.018406,1.031342,0.010518,-0.006709,-2.709511,-0.006596,-0.012775,0.021098,0.000000,0.000000,0.000000,0.000000,0.000000,0.000000,0.000000
1762203440.448777,-0.001375,-0.017444,1.032754,0.010518,-0.006709,-2.709511,-0.006596,-0.012775,0.021098,0.000000,0.000000,0.000000,0.000000,0.000000,0.000000,0.000000
1762203440.482164,-0.001375,-0.017444,1.032754,0.010518,-0.006709,-2.709511,-0.006596,-0.012775,0.021098,0.000000,0.000000,0.000000,0.000000,0.000000,0.000000,0.000000
1762203440.515455,-0.001289,-0.016486,1.033414,0.010518,-0.006709,-2.709511,-0.007701,-0.013398,0.010588,0.000000,0.000000,0.000000,0.000000,0.000000,0.000000,0.000000
1762203440.548823,-0.001289,-0.016486,1.033414,0.010518,-0.006709,-2.709511,-0.007701,-0.013398,0.010588,0.000000,0.000000,0.000000,0.000000,0.000000,0.000000,0.000000
1762203440.582093,-0.001192,-0.015404,1.034158,0.008859,-0.006768,-2.710815,-0.007684,-0.013408,0.010588,0.000000,0.000000,0.000000,0.000000,0.000000,0.000000,0.000000
1762203440.615558,-0.001192,-0.015404,1.034158,0.008859,-0.006768,-2.710815,-0.007684,-0.013408,0.010588,0.000000,0.000000,0.000000,0.000000,0.000000,0.000000,0.000000
1762203440.648865,-0.001192,-0.015404,1.034158,0.008859,-0.006768,-2.710815,-0.007684,-0.013408,0.010588,0.000000,0.000000,0.000000,0.000000,0.000000,0.000000,0.000000
1762203440.682079,-0.001091,-0.014284,1.034928,0.008859,-0.006768,-2.710815,-0.007684,-0.013408,0.010588,0.000000,0.000000,0.000000,0.000000,0.000000,0.000000,0.000000
1762203440.715439,-0.001091,-0.014284,1.034928,0.008859,-0.006768,-2.710815,-0.007684,-0.013408,0.010588,0.000000,0.000000,0.000000,0.000000,0.000000,0.000000,0.000000
1762203440.748737,-0.001151,-0.013322,1.035681,0.008859,-0.006768,-2.710815,-0.005482,-0.014188,0.011879,0.000000,0.000000,0.000000,0.000000,0.000000,0.000000,0.000000
1762203440.782101,-0.001191,-0.012686,1.036179,0.009592,-0.006885,-2.710357,-0.005488,-0.014185,0.011879,0.000000,0.000000,0.000000,0.000000,0.000000,0.000000,0.000000
1762203440.815405,-0.001191,-0.012686,1.036179,0.009592,-0.006885,-2.710357,-0.005488,-0.014185,0.011879,0.000000,0.000000,0.000000,0.000000,0.000000,0.000000,0.000000
1762203440.848769,-0.001191,-0.012686,1.036179,0.009592,-0.006885,-2.710357,-0.005488,-0.014185,0.011879,0.000000,0.000000,0.000000,0.000000,0.000000,0.000000,0.000000
1762203440.882088,-0.001281,-0.011241,1.037309,0.009592,-0.006885,-2.710357,-0.005488,-0.014185,0.011879,0.000000,0.000000,0.000000,0.000000,0.000000,0.000000,0.000000
1762203440.915450,-0.001281,-0.011241,1.037309,0.009592,-0.006885,-2.710357,-0.005488,-0.014185,0.011879,0.000000,0.000000,0.000000,0.000000,0.000000,0.000000,0.000000
1762203440.948778,-0.001446,-0.009771,1.038512,0.008079,-0.006309,-2.710415,-0.006295,-0.019034,0.016293,0.000000,0.000000,0.000000,0.000000,0.000000,0.000000,0.000000
1762203440.982105,-0.001504,-0.009251,1.038937,0.008079,-0.006309,-2.710415,-0.006295,-0.019034,0.016293,0.000000,0.000000,0.000000,0.000000,0.000000,0.000000,0.000000
1762203441.015442,-0.001504,-0.009251,1.038937,0.008079,-0.006309,-2.710415,-0.006295,-0.019034,0.016293,0.000000,0.000000,0.000000,0.000000,0.000000,0.000000,0.000000
1762203441.048805,-0.001504,-0.009251,1.038937,0.008079,-0.006309,-2.710415,-0.006295,-0.019034,0.016293,0.000000,0.000000,0.000000,0.000000,0.000000,0.000000,0.000000
1762203441.082088,-0.001724,-0.007287,1.040543,0.008079,-0.006309,-2.710415,-0.006295,-0.019034,0.016293,0.000000,0.000000,0.000000,0.000000,0.000000,0.000000,0.000000
1762203441.115479,-0.001852,-0.006550,1.040647,0.008079,-0.006309,-2.710415,-0.005151,-0.019327,0.002793,0.000000,0.000000,0.000000,0.000000,0.000000,0.000000,0.000000
1762203441.148823,-0.001852,-0.006550,1.040647,0.008079,-0.006309,-2.710415,-0.005151,-0.019327,0.002793,0.000000,0.000000,0.000000,0.000000,0.000000,0.000000,0.000000
1762203441.182096,-0.002063,-0.005323,1.040821,0.006580,-0.006960,-2.710505,-0.005149,-0.019327,0.002793,0.000000,0.000000,0.000000,0.000000,0.000000,0.000000,0.000000
1762203441.215485,-0.002063,-0.005323,1.040821,0.006580,-0.006960,-2.710505,-0.005149,-0.019327,0.002793,0.000000,0.000000,0.000000,0.000000,0.000000,0.000000,0.000000
1762203441.248768,-0.002289,-0.004014,1.041007,0.006580,-0.006960,-2.710505,-0.005149,-0.019327,0.002793,0.000000,0.000000,0.000000,0.000000,0.000000,0.000000,0.000000
1762203441.282113,-0.002289,-0.004014,1.041007,0.006580,-0.006960,-2.710505,-0.005149,-0.019327,0.002793,0.000000,0.000000,0.000000,0.000000,0.000000,0.000000,0.000000
1762203441.315448,-0.002520,-0.002675,1.041196,0.006580,-0.006960,-2.710505,-0.005149,-0.019327,0.002793,0.000000,0.000000,0.000000,0.000000,0.000000,0.000000,0.000000
1762203441.348785,-0.002520,-0.002675,1.041196,0.006580,-0.006960,-2.710505,-0.005149,-0.019327,0.002793,0.000000,0.000000,0.000000,0.000000,0.000000,0.000000,0.000000
1762203441.382089,-0.002520,-0.002675,1.041196,0.006580,-0.006960,-2.710505,-0.005149,-0.019327,0.002793,0.000000,0.000000,0.000000,0.000000,0.000000,0.000000,0.000000
1762203441.415420,-0.002685,-0.001227,1.041476,0.005607,-0.006790,-2.710674,-0.004331,-0.013197,0.002668,0.000000,0.000000,0.000000,0.000000,0.000000,0.000000,0.000000
1762203441.448776,-0.002735,-0.000795,1.041560,0.005607,-0.006790,-2.710674,-0.004331,-0.013197,0.002668,0.000000,0.000000,0.000000,0.000000,0.000000,0.000000,0.000000
1762203441.482063,-0.002828,0.000022,1.041718,0.005607,-0.006790,-2.710674,-0.004331,-0.013197,0.002668,0.000000,0.000000,0.000000,0.000000,0.000000,0.000000,0.000000
1762203441.515445,-0.002828,0.000022,1.041718,0.005607,-0.006790,-2.710674,-0.004331,-0.013197,0.002668,0.000000,0.000000,0.000000,0.000000,0.000000,0.000000,0.000000
1762203441.548781,-0.002828,0.000022,1.041718,0.005607,-0.006790,-2.710674,-0.004331,-0.013197,0.002668,0.000000,0.000000,0.000000,0.000000,0.000000,0.000000,0.000000
1762203441.582089,-0.003074,0.001380,1.038918,0.008037,-0.006798,-2.710336,-0.003580,-0.013890,-0.029104,0.000000,0.000000,0.000000,0.000000,0.000000,0.000000,0.000000
1762203441.615679,-0.003074,0.001380,1.038918,0.008037,-0.006798,-2.710336,-0.003580,-0.013890,-0.029104,0.000000,0.000000,0.000000,0.000000,0.000000,0.000000,0.000000
1762203441.648848,-0.003183,0.001983,1.037674,0.008037,-0.006798,-2.710336,-0.003580,-0.013890,-0.029104,0.000000,0.000000,0.000000,0.000000,0.000000,0.000000,0.000000
1762203441.682140,-0.003183,0.001983,1.037674,0.008037,-0.006798,-2.710336,-0.003580,-0.013890,-0.029104,0.000000,0.000000,0.000000,0.000000,0.000000,0.000000,0.000000
1762203441.715461,-0.003351,0.002914,1.035755,0.008037,-0.006798,-2.710336,-0.003580,-0.013890,-0.029104,0.000000,0.000000,0.000000,1.000000,1.000000,1.000000,0.000000
1762203441.748780,-0.003371,0.003787,1.032523,0.005848,-0.007094,-2.710054,-0.005723,-0.013203,-0.053262,0.000000,0.000000,0.000000,1.000000,1.000000,1.000000,0.000000
1762203441.782108,-0.003371,0.003787,1.032523,0.005848,-0.007094,-2.710054,-0.005723,-0.013203,-0.053262,0.000000,0.000000,0.000000,1.000000,1.000000,1.000000,0.000000
1762203441.815512,-0.003371,0.003787,1.032523,0.005848,-0.007094,-2.710054,-0.005723,-0.013203,-0.053262,0.000000,0.000000,0.000000,1.000000,1.000000,1.000000,0.000000
1762203441.848769,-0.003395,0.004882,1.028467,0.005848,-0.007094,-2.710054,-0.005723,-0.013203,-0.053262,0.000000,0.000000,0.000000,-1.000000,-1.000000,-1.000000,1.000000
1762203441.882082,-0.003413,0.005680,1.025513,0.005848,-0.007094,-2.710054,-0.005723,-0.013203,-0.053262,0.000000,0.000000,0.000000,-1.000000,-1.000000,0.568768,0.760788
1762203441.915469,-0.003413,0.005680,1.025513,0.005848,-0.007094,-2.710054,-0.005723,-0.013203,-0.053262,0.000000,0.000000,0.000000,-1.000000,-1.000000,0.626489,0.760788
1762203441.948878,-0.003413,0.005680,1.025513,0.005848,-0.007094,-2.710054,-0.005723,-0.013203,-0.053262,0.000000,0.000000,0.000000,-1.000000,-1.000000,0.572009,0.760788
1762203441.982086,-0.003530,0.006330,1.041964,-0.021421,0.026360,-2.703450,-0.002323,-0.008737,0.225419,0.000000,0.000000,0.000000,-1.000000,-1.000000,0.402700,0.760724
1762203442.015445,-0.003530,0.006330,1.041964,-0.021421,0.026360,-2.703450,-0.002323,-0.008737,0.225419,0.000000,0.000000,0.000000,-1.000000,-1.000000,0.708510,0.760779
1762203442.048836,-0.003530,0.006330,1.041964,-0.021421,0.026360,-2.703450,-0.002323,-0.008737,0.225419,0.000000,0.000000,0.000000,-1.000000,-1.000000,0.708510,0.760779
1762203442.082086,-0.003733,0.007453,1.070438,-0.021421,0.026360,-2.703450,-0.002323,-0.008737,0.225419,0.000000,0.000000,0.000000,-1.000000,-1.000000,0.255090,0.760779
1762203442.115493,-0.003733,0.007453,1.070438,-0.021421,0.026360,-2.703450,-0.002323,-0.008737,0.225419,0.000000,0.000000,0.000000,-1.000000,-1.000000,0.565740,0.760779
1762203442.148784,-0.005327,0.004171,1.107395,0.047286,-0.045439,-2.705012,0.039967,0.032457,0.521365,0.000000,0.000000,0.000000,-1.000000,-1.000000,0.676477,0.760779
1762203442.182093,-0.005327,0.004171,1.107395,0.047286,-0.045439,-2.705012,0.039967,0.032457,0.521365,0.000000,0.000000,0.000000,-1.000000,-1.000000,0.080583,0.760794
1762203442.215424,-0.006827,0.001083,1.142151,0.047286,-0.045439,-2.705012,0.039967,0.032457,0.521365,0.000000,0.000000,0.000000,-1.000000,-1.000000,0.798029,0.760781
1762203442.248813,-0.006827,0.001083,1.142151,0.047286,-0.045439,-2.705012,0.039967,0.032457,0.521365,0.000000,0.000000,0.000000,-1.000000,-1.000000,0.061776,0.760781
1762203442.282140,-0.006827,0.001083,1.142151,0.047286,-0.045439,-2.705012,0.039967,0.032457,0.521365,0.000000,0.000000,0.000000,-1.000000,-1.000000,0.756793,0.760781
1762203442.315518,-0.008359,-0.002071,1.177657,0.047286,-0.045439,-2.705012,0.039967,0.032457,0.521365,0.000000,0.000000,0.000000,-1.000000,-1.000000,-0.015638,0.760781
1762203442.348913,-0.008359,-0.002071,1.177657,0.047286,-0.045439,-2.705012,0.039967,0.032457,0.521365,0.000000,0.000000,0.000000,-1.000000,-1.000000,0.713639,0.760781
1762203442.382146,-0.005430,0.011178,1.227055,0.083873,-0.082823,-2.687123,-0.089928,-0.113038,0.525872,0.000000,0.000000,0.000000,-1.000000,-1.000000,0.713639,0.760781
1762203442.415544,-0.005430,0.011178,1.227055,0.083873,-0.082823,-2.687123,-0.089928,-0.113038,0.525872,0.000000,0.000000,0.000000,-1.000000,-1.000000,-0.386376,0.760603
1762203442.448942,-0.004224,0.016636,1.247403,0.083873,-0.082823,-2.687123,-0.089928,-0.113038,0.525872,0.000000,0.000000,0.000000,-1.000000,-1.000000,0.193614,0.760756
1762203442.482105,-0.004224,0.016636,1.247403,0.083873,-0.082823,-2.687123,-0.089928,-0.113038,0.525872,0.000000,0.000000,0.000000,-1.000000,-1.000000,0.628638,0.760756
1762203442.515453,-0.001999,0.026700,1.284930,0.083873,-0.082823,-2.687123,-0.089928,-0.113038,0.525872,0.000000,0.000000,0.000000,-1.000000,-1.000000,-0.232038,0.760756
1762203442.548815,-0.001999,0.026700,1.284930,0.083873,-0.082823,-2.687123,-0.089928,-0.113038,0.525872,0.000000,0.000000,0.000000,-1.000000,-1.000000,0.580242,0.760756
1762203442.582141,0.002303,0.044884,1.325078,0.089199,-0.095041,-2.669109,-0.196707,-0.231279,0.652366,0.000000,0.000000,0.000000,-1.000000,-1.000000,-0.285893,0.760568
1762203442.615564,0.002303,0.044884,1.325078,0.089199,-0.095041,-2.669109,-0.196707,-0.231279,0.652366,0.000000,0.000000,0.000000,-1.000000,-1.000000,0.597811,0.760729
1762203442.648951,0.007148,0.065362,1.370293,0.089199,-0.095041,-2.669109,-0.196707,-0.231279,0.652366,0.000000,0.000000,0.000000,-1.000000,-1.000000,-0.477830,0.760729
1762203442.682103,0.007148,0.065362,1.370293,0.089199,-0.095041,-2.669109,-0.196707,-0.231279,0.652366,0.000000,0.000000,0.000000,-1.000000,-1.000000,0.537663,0.760729
1762203442.715482,0.011857,0.085269,1.414246,0.089199,-0.095041,-2.669109,-0.196707,-0.231279,0.652366,0.000000,0.000000,0.000000,-1.000000,-1.000000,-0.519760,0.760729
1762203442.748777,0.017936,0.106091,1.414255,0.089199,-0.095041,-2.669109,-0.244893,-0.259470,0.000151,0.000000,0.000000,0.000000,-1.000000,-1.000000,0.478517,0.760729
1762203442.782133,0.017936,0.106091,1.414255,0.089199,-0.095041,-2.669109,-0.244893,-0.259470,0.000151,0.000000,0.000000,0.000000,-1.000000,-1.000000,0.116337,0.760729
1762203442.815513,0.017936,0.106091,1.414255,0.089199,-0.095041,-2.669109,-0.244893,-0.259470,0.000151,0.000000,0.000000,0.000000,-1.000000,-1.000000,0.116546,0.760729
1762203442.848983,0.025103,0.130645,1.414266,0.097867,-0.097468,-2.645372,-0.250982,-0.253584,0.000151,0.000000,0.000000,0.000000,-1.000000,-0.792967,0.116286,0.760465
1762203442.882179,0.025103,0.130645,1.414266,0.097867,-0.097468,-2.645372,-0.250982,-0.253584,0.000151,0.000000,0.000000,0.000000,-1.000000,-1.000000,0.116532,0.760692
1762203442.915565,0.031723,0.153322,1.414276,0.097867,-0.097468,-2.645372,-0.250982,-0.253584,0.000151,0.000000,0.000000,0.000000,-1.000000,-0.776773,0.116290,0.760692
1762203442.948770,0.031723,0.153322,1.414276,0.097867,-0.097468,-2.645372,-0.250982,-0.253584,0.000151,0.000000,0.000000,0.000000,-1.000000,-1.000000,0.116518,0.760692
1762203442.982121,0.042287,0.183813,1.395458,0.089505,-0.088940,-2.609659,-0.380756,-0.324195,-0.291629,0.000000,0.000000,0.000000,-1.000000,-0.311684,0.408889,0.760256
1762203443.015622,0.042287,0.183813,1.395458,0.089505,-0.088940,-2.609659,-0.380756,-0.324195,-0.291629,0.000000,0.000000,0.000000,-1.000000,-1.000000,-0.020019,0.760630
1762203443.048827,0.053629,0.216548,1.375254,0.089505,-0.088940,-2.609659,-0.380756,-0.324195,-0.291629,0.000000,0.000000,0.000000,-1.000000,-0.144940,0.463900,0.760630
1762203443.082124,0.053629,0.216548,1.375254,0.089505,-0.088940,-2.609659,-0.380756,-0.324195,-0.291629,0.000000,0.000000,0.000000,-1.000000,-1.000000,0.007130,0.760630
1762203443.115576,0.064382,0.247584,1.356099,0.089505,-0.088940,-2.609659,-0.380756,-0.324195,-0.291629,0.000000,0.000000,0.000000,-1.000000,-0.088544,0.463702,0.760630
1762203443.148837,0.064382,0.247584,1.356099,0.089505,-0.088940,-2.609659,-0.380756,-0.324195,-0.291629,0.000000,0.000000,0.000000,-1.000000,-1.000000,0.032746,0.760630
1762203443.182142,0.079446,0.294871,1.370803,0.074639,-0.098695,-2.586407,-0.571317,-0.488301,0.222679,0.000000,0.000000,0.000000,-1.000000,0.623100,-0.032112,0.760321
1762203443.215648,0.079446,0.294871,1.370803,0.074639,-0.098695,-2.586407,-0.571317,-0.488301,0.222679,0.000000,0.000000,0.000000,-1.000000,-0.892933,0.298518,0.760586
1762203443.248820,0.096192,0.347441,1.387150,0.074639,-0.098695,-2.586407,-0.571317,-0.488301,0.222679,0.000000,0.000000,0.000000,-1.000000,-0.892933,0.298518,0.760586
1762203443.282111,0.096192,0.347441,1.387150,0.074639,-0.098695,-2.586407,-0.571317,-0.488301,0.222679,0.000000,0.000000,0.000000,-1.000000,1.000000,-0.092006,0.760586
1762203443.315524,0.110144,0.391235,1.400769,0.074639,-0.098695,-2.586407,-0.571317,-0.488301,0.222679,0.000000,0.000000,0.000000,-1.000000,0.930519,-0.050856,0.760586
1762203443.348797,0.110144,0.391235,1.400769,0.074639,-0.098695,-2.586407,-0.571317,-0.488301,0.222679,0.000000,0.000000,0.000000,-1.000000,-0.668515,0.258248,0.760586
1762203443.382115,0.133776,0.450830,1.419760,0.074639,-0.098695,-2.586407,-0.726318,-0.538616,0.267872,0.000000,0.000000,0.000000,-1.000000,-0.668515,0.258248,0.760586
1762203443.415492,0.133776,0.450830,1.419760,0.074639,-0.098695,-2.586407,-0.726318,-0.538616,0.267872,0.000000,0.000000,0.000000,-1.000000,1.000000,-0.174424,0.760586
1762203443.448786,0.153969,0.501753,1.435989,0.019403,-0.101684,-2.567322,-0.736465,-0.524657,0.267872,0.000000,0.000000,0.000000,-1.000000,1.000000,-0.134534,0.760316
1762203443.482093,0.153969,0.501753,1.435989,0.019403,-0.101684,-2.567322,-0.736465,-0.524657,0.267872,0.000000,0.000000,0.000000,-1.000000,-0.154059,0.235697,0.760548
1762203443.515625,0.176793,0.559310,1.454331,0.019403,-0.101684,-2.567322,-0.736465,-0.524657,0.267872,0.000000,0.000000,0.000000,-1.000000,1.000000,-0.208887,0.760548
1762203443.548962,0.176793,0.559310,1.454331,0.019403,-0.101684,-2.567322,-0.736465,-0.524657,0.267872,0.000000,0.000000,0.000000,-1.000000,0.001281,0.210798,0.760548
1762203443.582191,0.214642,0.616811,1.463808,-0.019783,-0.080099,-2.532788,-0.867992,-0.346541,0.128665,0.000000,0.000000,0.000000,-1.000000,0.001281,0.210798,0.760548
1762203443.615442,0.233418,0.645336,1.468510,-0.019783,-0.080099,-2.532788,-0.867992,-0.346541,0.128665,0.000000,0.000000,0.000000,-1.000000,1.000000,-0.096032,0.760019
1762203443.648808,0.233418,0.645336,1.468510,-0.019783,-0.080099,-2.532788,-0.867992,-0.346541,0.128665,0.000000,0.000000,0.000000,-1.000000,1.000000,0.006420,0.760473
1762203443.682108,0.233418,0.645336,1.468510,-0.019783,-0.080099,-2.532788,-0.867992,-0.346541,0.128665,0.000000,0.000000,0.000000,-1.000000,0.886243,0.114267,0.760473
1762203443.715459,0.283280,0.721088,1.480994,-0.019783,-0.080099,-2.532788,-0.867992,-0.346541,0.128665,0.000000,0.000000,0.000000,-1.000000,0.886243,0.114267,0.760473
1762203443.748765,0.283280,0.721088,1.480994,-0.019783,-0.080099,-2.532788,-0.867992,-0.346541,0.128665,0.000000,0.000000,0.000000,-0.498693,1.000000,-0.189010,0.760473
1762203443.782123,0.318520,0.763419,1.476528,-0.019783,-0.080099,-2.532788,-0.922110,-0.252974,-0.077538,0.000000,0.000000,0.000000,-1.000000,1.000000,0.091346,0.760473
1762203443.815438,0.318520,0.763419,1.476528,-0.019783,-0.080099,-2.532788,-0.922110,-0.252974,-0.077538,0.000000,0.000000,0.000000,-1.000000,1.000000,-0.011078,0.760473
1762203443.848766,0.359647,0.812822,1.471315,-0.064764,-0.088424,-2.509570,-0.927735,-0.231498,-0.077538,0.000000,0.000000,0.000000,-1.000000,1.000000,-0.011078,0.760473
1762203443.882241,0.359647,0.812822,1.471315,-0.064764,-0.088424,-2.509570,-0.927735,-0.231498,-0.077538,0.000000,0.000000,0.000000,-1.000000,1.000000,0.115086,0.760086
1762203443.915443,0.403573,0.865587,1.465748,-0.064764,-0.088424,-2.509570,-0.927735,-0.231498,-0.077538,0.000000,0.000000,0.000000,-1.000000,1.000000,-0.003985,0.760418
1762203443.948765,0.403573,0.865587,1.465748,-0.064764,-0.088424,-2.509570,-0.927735,-0.231498,-0.077538,0.000000,0.000000,0.000000,-0.363091,1.000000,0.131342,0.760418
1762203443.982070,0.453098,0.905059,1.462989,-0.065416,-0.073794,-2.484879,-1.026591,-0.016630,-0.044718,0.000000,0.000000,0.000000,-1.000000,1.000000,0.003588,0.760418
1762203444.015459,0.486974,0.932058,1.461103,-0.065416,-0.073794,-2.484879,-1.026591,-0.016630,-0.044718,0.000000,0.000000,0.000000,-1.000000,1.000000,0.071338,0.760355
1762203444.048775,0.486974,0.932058,1.461103,-0.065416,-0.073794,-2.484879,-1.026591,-0.016630,-0.044718,0.000000,0.000000,0.000000,-1.000000,1.000000,0.028117,0.760355
1762203444.082082,0.547874,0.980595,1.457711,-0.065416,-0.073794,-2.484879,-1.026591,-0.016630,-0.044718,0.000000,0.000000,0.000000,1.000000,1.000000,0.110424,0.760355
1762203444.115458,0.547874,0.980595,1.457711,-0.065416,-0.073794,-2.484879,-1.026591,-0.016630,-0.044718,0.000000,0.000000,0.000000,-1.000000,1.000000,0.032728,0.760355
1762203444.148758,0.602333,1.015732,1.458781,-0.065416,-0.073794,-2.484879,-1.199765,0.100677,0.019872,0.000000,0.000000,0.000000,0.876362,1.000000,0.042515,0.760355
1762203444.182098,0.602333,1.015732,1.458781,-0.065416,-0.073794,-2.484879,-1.199765,0.100677,0.019872,0.000000,0.000000,0.000000,-1.000000,1.000000,0.067120,0.760355
1762203444.215486,0.674101,1.062038,1.460190,-0.072773,-0.086916,-2.459545,-1.196830,0.131036,0.019872,0.000000,0.000000,0.000000,1.000000,1.000000,0.032953,0.759865
1762203444.248932,0.674101,1.062038,1.460190,-0.072773,-0.086916,-2.459545,-1.196830,0.131036,0.019872,0.000000,0.000000,0.000000,-1.000000,1.000000,0.065204,0.760286
1762203444.282236,0.736633,1.102384,1.461419,-0.072773,-0.086916,-2.459545,-1.196830,0.131036,0.019872,0.000000,0.000000,0.000000,1.000000,1.000000,0.035411,0.760286
1762203444.315480,0.736633,1.102384,1.461419,-0.072773,-0.086916,-2.459545,-1.196830,0.131036,0.019872,0.000000,0.000000,0.000000,-1.000000,1.000000,0.063534,0.760286
1762203444.348823,0.802548,1.144912,1.462713,-0.072773,-0.086916,-2.459545,-1.196830,0.131036,0.019872,0.000000,0.000000,0.000000,1.000000,1.000000,0.032088,0.760286
1762203444.382163,0.802548,1.144912,1.462713,-0.072773,-0.086916,-2.459545,-1.196830,0.131036,0.019872,0.000000,0.000000,0.000000,-1.000000,1.000000,0.061773,0.760286
1762203444.415537,0.802548,1.144912,1.462713,-0.072773,-0.086916,-2.459545,-1.196830,0.131036,0.019872,0.000000,0.000000,0.000000,-1.000000,1.000000,0.061773,0.760286
1762203444.448792,0.903768,1.200626,1.465216,-0.068816,0.014939,-2.436970,-1.129699,0.230710,0.024972,0.000000,0.000000,0.000000,1.000000,1.000000,0.003497,0.759813
1762203444.482107,0.965297,1.234494,1.466737,-0.068816,0.014939,-2.436970,-1.129699,0.230710,0.024972,0.000000,0.000000,0.000000,-1.000000,1.000000,0.061201,0.760219
1762203444.515489,0.965297,1.234494,1.466737,-0.068816,0.014939,-2.436970,-1.129699,0.230710,0.024972,0.000000,0.000000,0.000000,1.000000,1.000000,0.024322,0.760219
1762203444.548788,0.997857,1.246910,1.467389,-0.068816,0.014939,-2.436970,-0.898051,0.317976,0.017817,0.000000,0.000000,0.000000,1.000000,1.000000,0.039325,0.760219
1762203444.582092,0.997857,1.246910,1.467389,-0.068816,0.014939,-2.436970,-0.898051,0.317976,0.017817,0.000000,0.000000,0.000000,-0.292766,1.000000,0.054275,0.760219
1762203444.615465,1.058467,1.270023,1.468602,-0.070045,0.034749,-2.409142,-0.888855,0.342841,0.017817,0.000000,0.000000,0.000000,1.000000,0.837457,0.024916,0.759596
1762203444.648823,1.058467,1.270023,1.468602,-0.070045,0.034749,-2.409142,-0.888855,0.342841,0.017817,0.000000,0.000000,0.000000,0.115094,1.000000,0.052625,0.760131
1762203444.682123,1.116170,1.292028,1.469757,-0.070045,0.034749,-2.409142,-0.888855,0.342841,0.017817,0.000000,0.000000,0.000000,1.000000,0.812032,0.024592,0.760131
1762203444.715415,1.174078,1.314111,1.470916,-0.070045,0.034749,-2.409142,-0.888855,0.342841,0.017817,0.000000,0.000000,0.000000,0.382066,1.000000,0.051054,0.760131
1762203444.748887,1.174078,1.314111,1.470916,-0.070045,0.034749,-2.409142,-0.888855,0.342841,0.017817,0.000000,0.000000,0.000000,1.000000,0.725884,0.023019,0.760131
1762203444.782090,1.174078,1.314111,1.470916,-0.070045,0.034749,-2.409142,-0.888855,0.342841,0.017817,0.000000,0.000000,0.000000,0.646487,1.000000,0.049477,0.760131
1762203444.815472,1.243180,1.332787,1.471979,-0.074999,0.031735,-2.386017,-0.925139,0.495387,0.015590,0.000000,0.000000,0.000000,1.000000,0.100222,0.022397,0.759570
1762203444.848763,1.309031,1.350584,1.472993,-0.074999,0.031735,-2.386017,-0.925139,0.495387,0.015590,0.000000,0.000000,0.000000,1.000000,1.000000,0.046794,0.760051
1762203444.882165,1.309031,1.350584,1.472993,-0.074999,0.031735,-2.386017,-0.925139,0.495387,0.015590,0.000000,0.000000,0.000000,1.000000,0.157703,0.022169,0.760051
1762203444.915683,1.309031,1.350584,1.472993,-0.074999,0.031735,-2.386017,-0.925139,0.495387,0.015590,0.000000,0.000000,0.000000,1.000000,1.000000,0.045416,0.760051
1762203444.948834,1.394838,1.352168,1.473806,-0.074999,0.031735,-2.386017,-0.739797,0.671593,0.009468,0.000000,0.000000,0.000000,1.000000,-1.000000,0.022296,0.760051
1762203444.982107,1.442097,1.353041,1.474254,-0.047197,0.064643,-2.359113,-0.721463,0.691251,0.009468,0.000000,0.000000,0.000000,1.000000,1.000000,0.040912,0.760051
1762203445.015448,1.442097,1.353041,1.474254,-0.047197,0.064643,-2.359113,-0.721463,0.691251,0.009468,0.000000,0.000000,0.000000,1.000000,-0.068425,0.030049,0.759349
1762203445.048813,1.442097,1.353041,1.474254,-0.047197,0.064643,-2.359113,-0.721463,0.691251,0.009468,0.000000,0.000000,0.000000,1.000000,1.000000,0.040302,0.759952
1762203445.082127,1.519070,1.354462,1.474983,-0.047197,0.064643,-2.359113,-0.721463,0.691251,0.009468,0.000000,0.000000,0.000000,1.000000,-1.000000,0.022610,0.759952
1762203445.115426,1.567412,1.346140,1.475734,-0.047197,0.064643,-2.359113,-0.532873,0.749864,0.014072,0.000000,0.000000,0.000000,1.000000,1.000000,0.039310,0.759952
1762203445.148812,1.567412,1.346140,1.475734,-0.047197,0.064643,-2.359113,-0.532873,0.749864,0.014072,0.000000,0.000000,0.000000,1.000000,-0.858957,0.023710,0.759952
1762203445.182102,1.629531,1.335445,1.476698,-0.015510,0.071371,-2.333091,-0.513182,0.763476,0.014072,0.000000,0.000000,0.000000,1.000000,1.000000,0.040843,0.759952
1762203445.215457,1.629531,1.335445,1.476698,-0.015510,0.071371,-2.333091,-0.513182,0.763476,0.014072,0.000000,0.000000,0.000000,1.000000,-1.000000,0.017376,0.759215
1762203445.248738,1.690668,1.324919,1.477647,-0.015510,0.071371,-2.333091,-0.513182,0.763476,0.014072,0.000000,0.000000,0.000000,1.000000,1.000000,0.039531,0.759848
1762203445.282086,1.690668,1.324919,1.477647,-0.015510,0.071371,-2.333091,-0.513182,0.763476,0.014072,0.000000,0.000000,0.000000,1.000000,-1.000000,0.016531,0.759848
1762203445.315445,1.750808,1.314565,1.478580,-0.015510,0.071371,-2.333091,-0.513182,0.763476,0.014072,0.000000,0.000000,0.000000,1.000000,0.927749,0.038240,0.759848
1762203445.348812,1.750808,1.314565,1.478580,-0.015510,0.071371,-2.333091,-0.513182,0.763476,0.014072,0.000000,0.000000,0.000000,1.000000,-1.000000,0.015578,0.759848
1762203445.382143,1.750808,1.314565,1.478580,-0.015510,0.071371,-2.333091,-0.513182,0.763476,0.014072,0.000000,0.000000,0.000000,1.000000,0.767894,0.036969,0.759848
1762203445.415466,1.808237,1.291685,1.479564,-0.015510,0.071371,-2.333091,-0.318152,0.789261,0.013534,0.000000,0.000000,0.000000,1.000000,-1.000000,0.012830,0.759848
1762203445.448780,1.855971,1.272669,1.480381,-0.038906,0.075719,-2.308370,-0.298545,0.796884,0.013534,0.000000,0.000000,0.000000,1.000000,0.316624,0.035333,0.759848
1762203445.482121,1.855971,1.272669,1.480381,-0.038906,0.075719,-2.308370,-0.298545,0.796884,0.013534,0.000000,0.000000,0.000000,1.000000,-1.000000,0.015487,0.759094
1762203445.515476,1.855971,1.272669,1.480381,-0.038906,0.075719,-2.308370,-0.298545,0.796884,0.013534,0.000000,0.000000,0.000000,1.000000,0.050989,0.034221,0.759741
1762203445.548792,1.906377,1.233470,1.480194,-0.038906,0.075719,-2.308370,-0.068341,0.890403,-0.002610,0.000000,0.000000,0.000000,1.000000,-1.000000,0.029784,0.759741
1762203445.582109,1.906377,1.233470,1.480194,-0.038906,0.075719,-2.308370,-0.068341,0.890403,-0.002610,0.000000,0.000000,0.000000,1.000000,-0.389832,0.025515,0.759741
1762203445.615451,1.958852,1.192662,1.480000,-0.059902,0.074980,-2.280910,-0.043868,0.891944,-0.002610,0.000000,0.000000,0.000000,1.000000,-1.000000,0.030240,0.758834
1762203445.648788,1.995905,1.163848,1.479863,-0.059902,0.074980,-2.280910,-0.043868,0.891944,-0.002610,0.000000,0.000000,0.000000,1.000000,-0.760903,0.025780,0.759613
1762203445.682151,1.995905,1.163848,1.479863,-0.059902,0.074980,-2.280910,-0.043868,0.891944,-0.002610,0.000000,0.000000,0.000000,1.000000,-1.000000,0.029116,0.759613
1762203445.715470,1.995905,1.163848,1.479863,-0.059902,0.074980,-2.280910,-0.043868,0.891944,-0.002610,0.000000,0.000000,0.000000,1.000000,-0.906514,0.025966,0.759613
1762203445.748791,2.047820,1.123475,1.479670,-0.059902,0.074980,-2.280910,-0.043868,0.891944,-0.002610,0.000000,0.000000,0.000000,1.000000,-1.000000,0.030631,0.759613
1762203445.782155,2.047820,1.123475,1.479670,-0.059902,0.074980,-2.280910,-0.043868,0.891944,-0.002610,0.000000,0.000000,0.000000,1.000000,-1.000000,0.026228,0.759613
1762203445.815517,2.087126,1.078829,1.480724,0.006615,0.073546,-2.255393,0.148520,0.895684,0.016083,0.000000,0.000000,0.000000,1.000000,-1.000000,0.011065,0.758703
1762203445.848808,2.124497,1.036381,1.481726,0.006615,0.073546,-2.255393,0.148520,0.895684,0.016083,0.000000,0.000000,0.000000,1.000000,-1.000000,0.035168,0.759484
1762203445.882125,2.124497,1.036381,1.481726,0.006615,0.073546,-2.255393,0.148520,0.895684,0.016083,0.000000,0.000000,0.000000,1.000000,-1.000000,0.010857,0.759484
1762203445.915574,2.124497,1.036381,1.481726,0.006615,0.073546,-2.255393,0.148520,0.895684,0.016083,0.000000,0.000000,0.000000,1.000000,-1.000000,0.033804,0.759484
1762203445.948888,2.156417,0.981366,1.483189,0.006615,0.073546,-2.255393,0.288400,0.765100,0.018806,0.000000,0.000000,0.000000,1.000000,-1.000000,-0.000264,0.759484
1762203445.982318,2.156417,0.981366,1.483189,0.006615,0.073546,-2.255393,0.288400,0.765100,0.018806,0.000000,0.000000,0.000000,1.000000,-1.000000,0.033324,0.759484
1762203446.015453,2.182170,0.936977,1.484369,0.070030,0.073911,-2.226976,0.310022,0.756596,0.018806,0.000000,0.000000,0.000000,1.000000,-1.000000,0.004651,0.758384
1762203446.048954,2.182170,0.936977,1.484369,0.070030,0.073911,-2.226976,0.310022,0.756596,0.018806,0.000000,0.000000,0.000000,1.000000,-1.000000,0.031718,0.759328
1762203446.082199,2.209179,0.890426,1.485607,0.070030,0.073911,-2.226976,0.310022,0.756596,0.018806,0.000000,0.000000,0.000000,1.000000,-1.000000,0.001712,0.759328
1762203446.115476,2.233240,0.848955,1.486710,0.070030,0.073911,-2.226976,0.310022,0.756596,0.018806,0.000000,0.000000,0.000000,1.000000,-1.000000,0.030033,0.759328
1762203446.148982,2.233240,0.848955,1.486710,0.070030,0.073911,-2.226976,0.310022,0.756596,0.018806,0.000000,0.000000,0.000000,1.000000,-1.000000,0.003064,0.759328
1762203446.182186,2.233240,0.848955,1.486710,0.070030,0.073911,-2.226976,0.310022,0.756596,0.018806,0.000000,0.000000,0.000000,1.000000,-1.000000,0.028531,0.759328
1762203446.215481,2.246576,0.796428,1.488733,0.089197,0.074136,-2.200714,0.483646,0.583331,0.028289,0.000000,0.000000,0.000000,0.426169,-1.000000,-0.015563,0.758221
1762203446.248940,2.246576,0.796428,1.488733,0.089197,0.074136,-2.200714,0.483646,0.583331,0.028289,0.000000,0.000000,0.000000,1.000000,-1.000000,0.031039,0.759172
1762203446.282171,2.258871,0.748001,1.490598,0.089197,0.074136,-2.200714,0.483646,0.583331,0.028289,0.000000,0.000000,0.000000,0.542587,-1.000000,-0.014259,0.759172
1762203446.315486,2.270950,0.700427,1.492431,0.089197,0.074136,-2.200714,0.483646,0.583331,0.028289,0.000000,0.000000,0.000000,1.000000,-1.000000,0.028500,0.759172
1762203446.348818,2.270950,0.700427,1.492431,0.089197,0.074136,-2.200714,0.483646,0.583331,0.028289,0.000000,0.000000,0.000000,0.485463,-1.000000,-0.016003,0.759172
1762203446.382176,2.270950,0.700427,1.492431,0.089197,0.074136,-2.200714,0.483646,0.583331,0.028289,0.000000,0.000000,0.000000,1.000000,-1.000000,0.026005,0.759172
1762203446.415515,2.266557,0.645314,1.494186,0.089197,0.074136,-2.200714,0.664113,0.407523,0.024737,0.000000,0.000000,0.000000,-0.302055,-1.000000,-0.018665,0.759172
1762203446.448822,2.266557,0.645314,1.494186,0.089197,0.074136,-2.200714,0.664113,0.407523,0.024737,0.000000,0.000000,0.000000,1.000000,-1.000000,0.021645,0.759172
1762203446.482130,2.261683,0.584157,1.496134,0.095418,0.066708,-2.174473,0.674577,0.389958,0.024737,0.000000,0.000000,0.000000,1.000000,-1.000000,0.021645,0.759172
1762203446.515512,2.261683,0.584157,1.496134,0.095418,0.066708,-2.174473,0.674577,0.389958,0.024737,0.000000,0.000000,0.000000,-0.912475,-1.000000,-0.025721,0.757979
1762203446.548828,2.244919,0.543084,1.497007,0.095418,0.066708,-2.174473,0.765574,0.168118,0.015426,0.000000,0.000000,0.000000,-0.365569,-1.000000,-0.007391,0.759003
1762203446.582141,2.244919,0.543084,1.497007,0.095418,0.066708,-2.174473,0.765574,0.168118,0.015426,0.000000,0.000000,0.000000,1.000000,-1.000000,0.012636,0.759003
1762203446.615420,2.221914,0.486718,1.498205,0.095831,0.026770,-2.145856,0.770071,0.146144,0.015426,0.000000,0.000000,0.000000,1.000000,-1.000000,0.012636,0.759003
1762203446.648750,2.221914,0.486718,1.498205,0.095831,0.026770,-2.145856,0.770071,0.146144,0.015426,0.000000,0.000000,0.000000,-1.000000,-1.000000,-0.016495,0.757591
1762203446.682081,2.205634,0.446831,1.499053,0.095831,0.026770,-2.145856,0.770071,0.146144,0.015426,0.000000,0.000000,0.000000,-0.703690,-1.000000,-0.009603,0.758803
1762203446.715455,2.205634,0.446831,1.499053,0.095831,0.026770,-2.145856,0.770071,0.146144,0.015426,0.000000,0.000000,0.000000,1.000000,-1.000000,0.009851,0.758803
1762203446.748764,2.185814,0.398272,1.500085,0.095831,0.026770,-2.145856,0.770071,0.146144,0.015426,0.000000,0.000000,0.000000,1.000000,-1.000000,0.009851,0.758803
1762203446.782108,2.185814,0.398272,1.500085,0.095831,0.026770,-2.145856,0.770071,0.146144,0.015426,0.000000,0.000000,0.000000,-1.000000,-1.000000,-0.015189,0.758803
1762203446.815458,2.155863,0.355563,1.501785,0.090613,-0.002815,-2.116801,0.695870,-0.045706,0.022722,0.000000,0.000000,0.000000,1.000000,-1.000000,0.008445,0.758803
1762203446.848808,2.155863,0.355563,1.501785,0.090613,-0.002815,-2.116801,0.695870,-0.045706,0.022722,0.000000,0.000000,0.000000,-1.000000,-1.000000,-0.028770,0.757242
1762203446.882122,2.131581,0.320939,1.503163,0.090613,-0.002815,-2.116801,0.695870,-0.045706,0.022722,0.000000,0.000000,0.000000,0.411786,-1.000000,0.010180,0.758582
1762203446.915454,2.113884,0.295703,1.504167,0.090613,-0.002815,-2.116801,0.695870,-0.045706,0.022722,0.000000,0.000000,0.000000,-1.000000,-1.000000,-0.023277,0.758582
1762203446.948808,2.113884,0.295703,1.504167,0.090613,-0.002815,-2.116801,0.695870,-0.045706,0.022722,0.000000,0.000000,0.000000,-1.000000,-1.000000,-0.016123,0.758582
1762203446.982104,2.113884,0.295703,1.504167,0.090613,-0.002815,-2.116801,0.695870,-0.045706,0.022722,0.000000,0.000000,0.000000,0.217503,-1.000000,0.006936,0.758582
1762203447.015455,2.068684,0.254315,1.503802,0.090884,-0.068110,-2.090695,0.651473,-0.208325,-0.004068,0.000000,0.000000,0.000000,0.217503,-1.000000,0.006936,0.758582
1762203447.048779,2.068684,0.254315,1.503802,0.090884,-0.068110,-2.090695,0.651473,-0.208325,-0.004068,0.000000,0.000000,0.000000,-1.000000,-1.000000,0.000936,0.757056
1762203447.082084,2.035152,0.223611,1.503532,0.090884,-0.068110,-2.090695,0.651473,-0.208325,-0.004068,0.000000,0.000000,0.000000,-0.440212,-1.000000,-0.007435,0.758366
1762203447.115469,2.035152,0.223611,1.503532,0.090884,-0.068110,-2.090695,0.651473,-0.208325,-0.004068,0.000000,0.000000,0.000000,-1.000000,-1.000000,-0.000869,0.758366
1762203447.148781,1.994875,0.199716,1.505892,0.090884,-0.068110,-2.090695,0.549492,-0.311295,0.031828,0.000000,0.000000,0.000000,-0.545393,-1.000000,-0.007067,0.758366
1762203447.182117,1.994875,0.199716,1.505892,0.090884,-0.068110,-2.090695,0.549492,-0.311295,0.031828,0.000000,0.000000,0.000000,-1.000000,-1.000000,-0.044405,0.758366
1762203447.215601,1.964177,0.181503,1.507691,0.092848,-0.047238,-2.063435,0.540803,-0.326157,0.031828,0.000000,0.000000,0.000000,-0.943984,-1.000000,0.009641,0.758366
1762203447.248790,1.943142,0.169023,1.508924,0.092848,-0.047238,-2.063435,0.540803,-0.326157,0.031828,0.000000,0.000000,0.000000,-1.000000,-1.000000,-0.033964,0.756646
1762203447.282196,1.943142,0.169023,1.508924,0.092848,-0.047238,-2.063435,0.540803,-0.326157,0.031828,0.000000,0.000000,0.000000,-1.000000,-1.000000,-0.022867,0.758122
1762203447.315447,1.943142,0.169023,1.508924,0.092848,-0.047238,-2.063435,0.540803,-0.326157,0.031828,0.000000,0.000000,0.000000,-1.000000,-1.000000,0.005513,0.758122
1762203447.348742,1.886473,0.135403,1.512244,0.092848,-0.047238,-2.063435,0.540803,-0.326157,0.031828,0.000000,0.000000,0.000000,-1.000000,-1.000000,-0.075323,0.758122
1762203447.382065,1.863340,0.129546,1.510376,0.092848,-0.047238,-2.063435,0.423474,-0.463199,-0.049148,0.000000,0.000000,0.000000,-1.000000,-1.000000,0.001484,0.758122
1762203447.415454,1.863340,0.129546,1.510376,0.092848,-0.047238,-2.063435,0.423474,-0.463199,-0.049148,0.000000,0.000000,0.000000,-1.000000,-1.000000,-0.041402,0.758122
1762203447.448791,1.828785,0.120796,1.507584,0.090923,-0.077187,-2.037091,0.411126,-0.474193,-0.049148,0.000000,0.000000,0.000000,-1.000000,-1.000000,0.026377,0.756319
1762203447.482145,1.828785,0.120796,1.507584,0.090923,-0.077187,-2.037091,0.411126,-0.474193,-0.049148,0.000000,0.000000,0.000000,-1.000000,-1.000000,-0.037602,0.757867
1762203447.515457,1.790343,0.111063,1.504479,0.090923,-0.077187,-2.037091,0.411126,-0.474193,-0.049148,0.000000,0.000000,0.000000,-1.000000,-1.000000,0.037748,0.757867
1762203447.548782,1.790343,0.111063,1.504479,0.090923,-0.077187,-2.037091,0.411126,-0.474193,-0.049148,0.000000,0.000000,0.000000,-1.000000,-1.000000,-0.033374,0.757867
1762203447.582130,1.743397,0.116403,1.505528,0.090923,-0.077187,-2.037091,0.226532,-0.614782,0.014548,0.000000,0.000000,0.000000,-1.000000,-1.000000,-0.023474,0.757867
1762203447.615479,1.743397,0.116403,1.505528,0.090923,-0.077187,-2.037091,0.226532,-0.614782,0.014548,0.000000,0.000000,0.000000,-1.000000,-1.000000,0.000547,0.757867
1762203447.648897,1.743397,0.116403,1.505528,0.090923,-0.077187,-2.037091,0.226532,-0.614782,0.014548,0.000000,0.000000,0.000000,-1.000000,-1.000000,0.000547,0.757867
1762203447.682091,1.679814,0.123635,1.506949,0.091125,-0.089700,-2.009860,0.209709,-0.620722,0.014548,0.000000,0.000000,0.000000,-1.000000,-1.000000,-0.034055,0.755842
1762203447.715442,1.659159,0.125984,1.507410,0.091125,-0.089700,-2.009860,0.209709,-0.620722,0.014548,0.000000,0.000000,0.000000,-1.000000,-1.000000,-0.012576,0.757581
1762203447.748923,1.659159,0.125984,1.507410,0.091125,-0.089700,-2.009860,0.209709,-0.620722,0.014548,0.000000,0.000000,0.000000,-1.000000,-1.000000,-0.002016,0.757581
1762203447.782115,1.611004,0.145695,1.507190,0.091125,-0.089700,-2.009860,0.036813,-0.727677,-0.003081,0.000000,0.000000,0.000000,-1.000000,-1.000000,-0.006448,0.757581
1762203447.815632,1.611004,0.145695,1.507190,0.091125,-0.089700,-2.009860,0.036813,-0.727677,-0.003081,0.000000,0.000000,0.000000,-1.000000,-1.000000,-0.011500,0.757581
1762203447.848794,1.554320,0.168897,1.506931,0.089313,-0.092225,-1.983561,0.017665,-0.728394,-0.003081,0.000000,0.000000,0.000000,-1.000000,-1.000000,-0.011500,0.757581
1762203447.882078,1.554320,0.168897,1.506931,0.089313,-0.092225,-1.983561,0.017665,-0.728394,-0.003081,0.000000,0.000000,0.000000,-1.000000,-1.000000,-0.005201,0.755465
1762203447.915494,1.521509,0.182327,1.506781,0.089313,-0.092225,-1.983561,0.017665,-0.728394,-0.003081,0.000000,0.000000,0.000000,-1.000000,-1.000000,-0.007508,0.757282
1762203447.948751,1.521509,0.182327,1.506781,0.089313,-0.092225,-1.983561,0.017665,-0.728394,-0.003081,0.000000,0.000000,0.000000,-1.000000,-1.000000,-0.010943,0.757282
1762203447.982128,1.479017,0.208849,1.505893,0.089313,-0.092225,-1.983561,-0.118919,-0.813085,-0.014582,0.000000,0.000000,0.000000,-1.000000,-1.000000,0.004211,0.757282
1762203448.015458,1.479017,0.208849,1.505893,0.089313,-0.092225,-1.983561,-0.118919,-0.813085,-0.014582,0.000000,0.000000,0.000000,-1.000000,-1.000000,-0.016116,0.757282
1762203448.048768,1.434723,0.236495,1.504966,0.088370,-0.090938,-1.956730,-0.140689,-0.809602,-0.014582,0.000000,0.000000,0.000000,-1.000000,-0.489094,0.006396,0.754947
1762203448.082124,1.434723,0.236495,1.504966,0.088370,-0.090938,-1.956730,-0.140689,-0.809602,-0.014582,0.000000,0.000000,0.000000,-1.000000,-1.000000,-0.014854,0.756951
1762203448.115548,1.382100,0.269340,1.503865,0.088370,-0.090938,-1.956730,-0.140689,-0.809602,-0.014582,0.000000,0.000000,0.000000,-1.000000,0.413947,0.011840,0.756951
1762203448.148813,1.382100,0.269340,1.503865,0.088370,-0.090938,-1.956730,-0.140689,-0.809602,-0.014582,0.000000,0.000000,0.000000,-1.000000,-1.000000,-0.013355,0.756951
1762203448.182135,1.338514,0.304470,1.503822,0.088370,-0.090938,-1.956730,-0.263990,-0.876810,-0.000711,0.000000,0.000000,0.000000,-1.000000,0.452682,-0.004603,0.756951
1762203448.215567,1.338514,0.304470,1.503822,0.088370,-0.090938,-1.956730,-0.263990,-0.876810,-0.000711,0.000000,0.000000,0.000000,-1.000000,-1.000000,-0.005598,0.756951
1762203448.248865,1.290623,0.343070,1.503774,0.087296,-0.090961,-1.929698,-0.287593,-0.869354,-0.000711,0.000000,0.000000,0.000000,-1.000000,1.000000,-0.004437,0.754400
1762203448.282255,1.290623,0.343070,1.503774,0.087296,-0.090961,-1.929698,-0.287593,-0.869354,-0.000711,0.000000,0.000000,0.000000,-1.000000,-1.000000,-0.005533,0.756590
1762203448.315476,1.239520,0.384259,1.503723,0.087296,-0.090961,-1.929698,-0.287593,-0.869354,-0.000711,0.000000,0.000000,0.000000,-1.000000,1.000000,-0.004294,0.756590
1762203448.348863,1.239520,0.384259,1.503723,0.087296,-0.090961,-1.929698,-0.287593,-0.869354,-0.000711,0.000000,0.000000,0.000000,-1.000000,-1.000000,-0.005464,0.756590
1762203448.382106,1.195959,0.419368,1.503680,0.087296,-0.090961,-1.929698,-0.287593,-0.869354,-0.000711,0.000000,0.000000,0.000000,-1.000000,1.000000,-0.004407,0.756590
1762203448.415492,1.195959,0.419368,1.503680,0.087296,-0.090961,-1.929698,-0.287593,-0.869354,-0.000711,0.000000,0.000000,0.000000,-1.000000,-1.000000,-0.005405,0.756590
1762203448.448803,1.142241,0.474361,1.502808,0.085560,-0.090940,-1.903476,-0.472215,-0.942553,-0.011953,0.000000,0.000000,0.000000,-1.000000,1.000000,0.009507,0.753916
1762203448.482110,1.142241,0.474361,1.502808,0.085560,-0.090940,-1.903476,-0.472215,-0.942553,-0.011953,0.000000,0.000000,0.000000,-1.000000,-1.000000,-0.010457,0.756211
1762203448.515463,1.098298,0.519346,1.502095,0.085560,-0.090940,-1.903476,-0.472215,-0.942553,-0.011953,0.000000,0.000000,0.000000,-1.000000,1.000000,0.006851,0.756211
1762203448.548769,1.098298,0.519346,1.502095,0.085560,-0.090940,-1.903476,-0.472215,-0.942553,-0.011953,0.000000,0.000000,0.000000,-1.000000,-0.844834,-0.009486,0.756211
1762203448.582101,1.045414,0.583600,1.503462,0.085560,-0.090940,-1.903476,-0.616947,-1.007449,0.019401,0.000000,0.000000,0.000000,-1.000000,1.000000,-0.025298,0.756211
1762203448.615453,1.045414,0.583600,1.503462,0.085560,-0.090940,-1.903476,-0.616947,-1.007449,0.019401,0.000000,0.000000,0.000000,-1.000000,-0.272856,0.006054,0.756211
1762203448.648777,0.994638,0.645292,1.504774,0.089361,-0.090057,-1.877679,-0.642727,-0.991201,0.019401,0.000000,0.000000,0.000000,-1.000000,1.000000,-0.025858,0.753363
1762203448.682073,0.994638,0.645292,1.504774,0.089361,-0.090057,-1.877679,-0.642727,-0.991201,0.019401,0.000000,0.000000,0.000000,-1.000000,0.209472,0.004267,0.755808
1762203448.715453,0.949242,0.700447,1.505947,0.089361,-0.090057,-1.877679,-0.642727,-0.991201,0.019401,0.000000,0.000000,0.000000,-1.000000,1.000000,-0.024237,0.755808
1762203448.748775,0.949242,0.700447,1.505947,0.089361,-0.090057,-1.877679,-0.642727,-0.991201,0.019401,0.000000,0.000000,0.000000,-1.000000,0.488283,0.002670,0.755808
1762203448.782223,0.886685,0.781062,1.504708,0.089361,-0.090057,-1.877679,-0.740315,-1.072940,-0.015831,0.000000,0.000000,0.000000,-0.016115,1.000000,0.013236,0.755808
1762203448.815531,0.886685,0.781062,1.504708,0.089361,-0.090057,-1.877679,-0.740315,-1.072940,-0.015831,0.000000,0.000000,0.000000,-1.000000,1.000000,-0.015195,0.755808
1762203448.848881,0.843842,0.836271,1.503859,0.067287,-0.086614,-1.849445,-0.770310,-1.051613,-0.015831,0.000000,0.000000,0.000000,-0.751327,1.000000,0.005385,0.752438
1762203448.882167,0.843842,0.836271,1.503859,0.067287,-0.086614,-1.849445,-0.770310,-1.051613,-0.015831,0.000000,0.000000,0.000000,-1.000000,1.000000,-0.014040,0.755330
1762203448.915487,0.788583,0.907480,1.502765,0.067287,-0.086614,-1.849445,-0.770310,-1.051613,-0.015831,0.000000,0.000000,0.000000,0.415335,1.000000,0.012370,0.755330
1762203448.948785,0.788583,0.907480,1.502765,0.067287,-0.086614,-1.849445,-0.770310,-1.051613,-0.015831,0.000000,0.000000,0.000000,-1.000000,1.000000,-0.012550,0.755330
1762203448.982141,0.741731,0.981117,1.502016,0.067287,-0.086614,-1.849445,-0.862753,-0.972860,-0.011156,0.000000,0.000000,0.000000,1.000000,1.000000,0.008281,0.755330
1762203449.015425,0.741731,0.981117,1.502016,0.067287,-0.086614,-1.849445,-0.862753,-0.972860,-0.011156,0.000000,0.000000,0.000000,-1.000000,1.000000,-0.008936,0.755330
1762203449.048794,0.696981,1.051449,1.501300,-0.031920,-0.087984,-1.825490,-0.885808,-0.951916,-0.011156,0.000000,0.000000,0.000000,1.000000,1.000000,0.008431,0.752237
1762203449.082128,0.696981,1.051449,1.501300,-0.031920,-0.087984,-1.825490,-0.885808,-0.951916,-0.011156,0.000000,0.000000,0.000000,-1.000000,1.000000,-0.007962,0.754892
1762203449.115468,0.645260,1.132737,1.500474,-0.031920,-0.087984,-1.825490,-0.885808,-0.951916,-0.011156,0.000000,0.000000,0.000000,1.000000,1.000000,0.012131,0.754892
1762203449.148806,0.645260,1.132737,1.500474,-0.031920,-0.087984,-1.825490,-0.885808,-0.951916,-0.011156,0.000000,0.000000,0.000000,-1.000000,1.000000,-0.006837,0.754892
1762203449.182152,0.611602,1.208249,1.502620,-0.031920,-0.087984,-1.825490,-0.942064,-0.752489,0.031306,0.000000,0.000000,0.000000,1.000000,1.000000,-0.035473,0.754892
1762203449.215464,0.611602,1.208249,1.502620,-0.031920,-0.087984,-1.825490,-0.942064,-0.752489,0.031306,0.000000,0.000000,0.000000,-1.000000,1.000000,0.013806,0.754892
1762203449.248762,0.581886,1.274918,1.504516,-0.069554,-0.085649,-1.798635,-0.961930,-0.726922,0.031306,0.000000,0.000000,0.000000,1.000000,1.000000,-0.032149,0.751156
1762203449.282090,0.581886,1.274918,1.504516,-0.069554,-0.085649,-1.798635,-0.961930,-0.726922,0.031306,0.000000,0.000000,0.000000,-1.000000,1.000000,0.011225,0.754362
1762203449.315478,0.546916,1.353375,1.506746,-0.069554,-0.085649,-1.798635,-0.961930,-0.726922,0.031306,0.000000,0.000000,0.000000,1.000000,1.000000,-0.042977,0.754362
1762203449.348801,0.546916,1.353375,1.506746,-0.069554,-0.085649,-1.798635,-0.961930,-0.726922,0.031306,0.000000,0.000000,0.000000,-0.892542,1.000000,0.008189,0.754362
1762203449.382136,0.517946,1.418369,1.508593,-0.069554,-0.085649,-1.798635,-0.961930,-0.726922,0.031306,0.000000,0.000000,0.000000,1.000000,1.000000,-0.036760,0.754362
1762203449.415463,0.517946,1.418369,1.508593,-0.069554,-0.085649,-1.798635,-0.961930,-0.726922,0.031306,0.000000,0.000000,0.000000,-0.657589,1.000000,0.005673,0.754362
1762203449.448772,0.500317,1.500549,1.510848,-0.077778,-0.085024,-1.772174,-1.058639,-0.463504,0.031004,0.000000,0.000000,0.000000,1.000000,1.000000,-0.049493,0.750356
1762203449.482110,0.500317,1.500549,1.510848,-0.077778,-0.085024,-1.772174,-1.058639,-0.463504,0.031004,0.000000,0.000000,0.000000,0.270565,1.000000,0.002436,0.753797
1762203449.515478,0.483250,1.580112,1.513031,-0.077778,-0.085024,-1.772174,-1.058639,-0.463504,0.031004,0.000000,0.000000,0.000000,0.270565,1.000000,0.002436,0.753797
1762203449.548807,0.483250,1.580112,1.513031,-0.077778,-0.085024,-1.772174,-1.058639,-0.463504,0.031004,0.000000,0.000000,0.000000,1.000000,1.000000,-0.050753,0.753797
1762203449.582101,0.484380,1.650267,1.512405,-0.077778,-0.085024,-1.772174,-1.090381,-0.204362,-0.009902,0.000000,0.000000,0.000000,1.000000,1.000000,-0.008038,0.753797
1762203449.615477,0.484380,1.650267,1.512405,-0.077778,-0.085024,-1.772174,-1.090381,-0.204362,-0.009902,0.000000,0.000000,0.000000,1.000000,1.000000,-0.022385,0.753797
1762203449.648785,0.485508,1.720268,1.511780,-0.077994,-0.071247,-1.746789,-1.095217,-0.176620,-0.009902,0.000000,0.000000,0.000000,1.000000,1.000000,-0.007160,0.749650
1762203449.682112,0.485508,1.720268,1.511780,-0.077994,-0.071247,-1.746789,-1.095217,-0.176620,-0.009902,0.000000,0.000000,0.000000,1.000000,1.000000,-0.021534,0.753212
1762203449.715444,0.486916,1.807746,1.510999,-0.077994,-0.071247,-1.746789,-1.095217,-0.176620,-0.009902,0.000000,0.000000,0.000000,1.000000,1.000000,-0.021534,0.753212
1762203449.748773,0.486916,1.807746,1.510999,-0.077994,-0.071247,-1.746789,-1.095217,-0.176620,-0.009902,0.000000,0.000000,0.000000,1.000000,1.000000,-0.002520,0.753212
1762203449.782248,0.487901,1.868874,1.510454,-0.077994,-0.071247,-1.746789,-1.095217,-0.176620,-0.009902,0.000000,0.000000,0.000000,1.000000,1.000000,-0.007224,0.753212
1762203449.815691,0.487901,1.868874,1.510454,-0.077994,-0.071247,-1.746789,-1.095217,-0.176620,-0.009902,0.000000,0.000000,0.000000,1.000000,1.000000,-0.019728,0.753212
1762203449.848797,0.502210,1.945673,1.509153,-0.075375,0.029458,-1.724073,-1.024159,0.031681,-0.017062,0.000000,0.000000,0.000000,1.000000,1.000000,-0.019728,0.753212
1762203449.882127,0.502210,1.945673,1.509153,-0.075375,0.029458,-1.724073,-1.024159,0.031681,-0.017062,0.000000,0.000000,0.000000,1.000000,1.000000,0.007933,0.749233
1762203449.915477,0.515157,2.015167,1.507976,-0.075375,0.029458,-1.724073,-1.024159,0.031681,-0.017062,0.000000,0.000000,0.000000,1.000000,1.000000,-0.021931,0.752649
1762203449.948778,0.520739,2.045127,1.507468,-0.075375,0.029458,-1.724073,-1.024159,0.031681,-0.017062,0.000000,0.000000,0.000000,1.000000,1.000000,0.006685,0.752649
1762203449.982148,0.520739,2.045127,1.507468,-0.075375,0.029458,-1.724073,-1.024159,0.031681,-0.017062,0.000000,0.000000,0.000000,1.000000,1.000000,-0.008013,0.752649
1762203450.015553,0.520739,2.045127,1.507468,-0.075375,0.029458,-1.724073,-1.024159,0.031681,-0.017062,0.000000,0.000000,0.000000,1.000000,1.000000,-0.019637,0.752649
1762203450.048918,0.547307,2.123646,1.507293,-0.073787,0.070453,-1.699028,-0.814525,0.163447,-0.001755,0.000000,0.000000,0.000000,1.000000,1.000000,-0.019637,0.752649
1762203450.082096,0.547307,2.123646,1.507293,-0.073787,0.070453,-1.699028,-0.814525,0.163447,-0.001755,0.000000,0.000000,0.000000,1.000000,1.000000,-0.006890,0.747946
1762203450.115503,0.563245,2.170752,1.507188,-0.073787,0.070453,-1.699028,-0.814525,0.163447,-0.001755,0.000000,0.000000,0.000000,1.000000,1.000000,-0.010904,0.751983
1762203450.148906,0.573481,2.201002,1.507121,-0.073787,0.070453,-1.699028,-0.814525,0.163447,-0.001755,0.000000,0.000000,0.000000,1.000000,1.000000,-0.008358,0.751983
1762203450.182100,0.573481,2.201002,1.507121,-0.073787,0.070453,-1.699028,-0.814525,0.163447,-0.001755,0.000000,0.000000,0.000000,1.000000,1.000000,-0.009120,0.751983
1762203450.215462,0.596843,2.238630,1.504040,-0.072542,0.080539,-1.673368,-0.578226,0.281501,-0.044742,0.000000,0.000000,0.000000,1.000000,1.000000,-0.010669,0.751983
1762203450.248790,0.596843,2.238630,1.504040,-0.072542,0.080539,-1.673368,-0.578226,0.281501,-0.044742,0.000000,0.000000,0.000000,1.000000,1.000000,0.040354,0.746786
1762203450.282111,0.618510,2.273527,1.501182,-0.072542,0.080539,-1.673368,-0.578226,0.281501,-0.044742,0.000000,0.000000,0.000000,1.000000,1.000000,-0.030330,0.751248
1762203450.315482,0.618510,2.273527,1.501182,-0.072542,0.080539,-1.673368,-0.578226,0.281501,-0.044742,0.000000,0.000000,0.000000,1.000000,1.000000,0.039050,0.751248
1762203450.348902,0.618510,2.273527,1.501182,-0.072542,0.080539,-1.673368,-0.578226,0.281501,-0.044742,0.000000,0.000000,0.000000,1.000000,1.000000,-0.026439,0.751248
