time,x,y,z,roll,pitch,yaw,linx,liny,linz,angx,angy,angz,cmd_linx,cmd_liny,cmd_linz,cmd_angz,raw_linx,raw_liny,raw_linz,raw_angz,yaw_pos,yaw_rate
1762205223.734144,1.587240,-0.007166,0.768707,0.013963,-0.006438,-2.858350,0.008739,0.012680,0.067626,0.000000,0.000000,0.000000,-0.000000,-0.000000,-0.000000,-0.000000,0.000000,0.000000,0.000000,0.000000,-2.858350,0.000000
1762205223.767400,1.587240,-0.007166,0.768707,0.013963,-0.006438,-2.858350,0.008739,0.012680,0.067626,0.000000,0.000000,0.000000,-0.000000,-0.000000,-0.000000,-0.000000,0.000000,0.000000,0.000000,0.000000,-2.858350,0.000000
1762205223.800944,1.587240,-0.007166,0.768707,0.013963,-0.006438,-2.858350,0.008739,0.012680,0.067626,0.000000,0.000000,0.000000,-0.000000,-0.000000,-0.000000,-0.000000,0.000000,0.000000,0.000000,0.000000,-2.858350,0.000000
1762205223.834050,1.586873,-0.008273,0.773829,0.013963,-0.006438,-2.858350,0.008739,0.012680,0.067626,0.000000,0.000000,0.000000,0.062536,-0.000000,-0.000000,-0.000000,0.000000,0.000000,0.000000,0.000000,-2.858350,0.000000
1762205223.867425,1.586568,-0.008855,0.776585,0.010722,-0.007868,-2.856972,0.007992,0.008289,0.048293,0.000000,0.000000,0.000000,1.000000,-0.000000,-0.000000,-0.000000,0.000000,0.000000,0.000000,0.000000,-2.856972,0.000000
1762205223.900811,1.586568,-0.008855,0.776585,0.010722,-0.007868,-2.856972,0.007992,0.008289,0.048293,0.000000,0.000000,0.000000,1.000000,0.251654,-0.000000,-0.000000,0.000000,0.000000,0.000000,0.000000,-2.856972,0.000000
1762205223.934085,1.586568,-0.008855,0.776585,0.010722,-0.007868,-2.856972,0.007992,0.008289,0.048293,0.000000,0.000000,0.000000,1.000000,0.251654,-0.000000,-0.000000,0.000000,0.000000,0.000000,0.000000,-2.856972,0.000000
1762205223.967394,1.586176,-0.009602,0.780121,0.010722,-0.007868,-2.856972,0.007992,0.008289,0.048293,0.000000,0.000000,0.000000,1.000000,0.251654,-0.000000,-0.000000,0.000000,0.000000,0.000000,0.000000,-2.856972,0.000000
1762205224.000772,1.586176,-0.009602,0.780121,0.010722,-0.007868,-2.856972,0.007992,0.008289,0.048293,0.000000,0.000000,0.000000,1.000000,0.251654,-0.000000,-0.000000,0.000000,0.000000,0.000000,0.000000,-2.856972,0.000000
1762205224.034039,1.586216,-0.010429,0.783692,0.010722,-0.007868,-2.856972,0.003028,0.012583,0.055773,0.000000,0.000000,0.000000,1.000000,0.251654,-0.000000,-0.000000,0.000000,0.000000,0.000000,0.000000,-2.856972,0.000000
1762205224.067439,1.586254,-0.011194,0.786991,0.000964,0.015066,-2.857568,0.003020,0.012585,0.055773,0.000000,0.000000,0.000000,1.000000,0.251654,-0.000000,-0.000000,0.000000,0.000000,0.000000,0.000000,-2.857568,0.000000
1762205224.100766,1.586254,-0.011194,0.786991,0.000964,0.015066,-2.857568,0.003020,0.012585,0.055773,0.000000,0.000000,0.000000,1.000000,0.251654,-0.000000,-0.000000,0.000000,0.000000,0.000000,0.000000,-2.857568,0.000000
1762205224.134034,1.586281,-0.011753,0.789403,0.000964,0.015066,-2.857568,0.003020,0.012585,0.055773,0.000000,0.000000,0.000000,1.000000,0.251654,-0.000000,-0.000000,0.000000,0.000000,0.000000,0.000000,-2.857568,0.000000
1762205224.167431,1.586281,-0.011753,0.789403,0.000964,0.015066,-2.857568,0.003020,0.012585,0.055773,0.000000,0.000000,0.000000,1.000000,0.251654,-0.000000,-0.000000,0.000000,0.000000,0.000000,0.000000,-2.857568,0.000000
1762205224.200830,1.586281,-0.011753,0.789403,0.000964,0.015066,-2.857568,0.003020,0.012585,0.055773,0.000000,0.000000,0.000000,1.000000,0.251654,-0.000000,-0.000000,0.000000,0.000000,0.000000,0.000000,-2.857568,0.000000
1762205224.234023,1.576961,-0.019669,0.792873,0.000964,0.015066,-2.857568,0.110113,0.049184,0.034217,0.000000,0.000000,0.000000,1.000000,0.251654,-0.000000,-0.000000,0.000000,0.000000,0.000000,0.000000,-2.857568,0.000000
1762205224.267431,1.576961,-0.019669,0.792873,0.000964,0.015066,-2.857568,0.110113,0.049184,0.034217,0.000000,0.000000,0.000000,1.000000,0.251654,-0.000000,-0.000000,0.000000,0.000000,0.000000,0.000000,-2.857568,0.000000
1762205224.300738,1.571015,-0.024718,0.795086,-0.016552,0.071340,-2.857208,0.110131,0.049144,0.034217,0.000000,0.000000,0.000000,1.000000,0.251654,-0.000000,-0.000000,0.000000,0.000000,0.000000,0.000000,-2.857208,0.000000
1762205224.334049,1.571015,-0.024718,0.795086,-0.016552,0.071340,-2.857208,0.110131,0.049144,0.034217,0.000000,0.000000,0.000000,1.000000,0.251654,-0.000000,-0.000000,0.000000,0.000000,0.000000,0.000000,-2.857208,0.000000
1762205224.367393,1.565029,-0.029803,0.797314,-0.016552,0.071340,-2.857208,0.110131,0.049144,0.034217,0.000000,0.000000,0.000000,1.000000,0.251654,-0.000000,-0.000000,0.000000,0.000000,0.000000,0.000000,-2.857208,0.000000
1762205224.400933,1.565029,-0.029803,0.797314,-0.016552,0.071340,-2.857208,0.110131,0.049144,0.034217,0.000000,0.000000,0.000000,1.000000,0.251654,-0.000000,-0.000000,0.000000,0.000000,0.000000,0.000000,-2.857208,0.000000
1762205224.434032,1.558843,-0.035057,0.799617,-0.016552,0.071340,-2.857208,0.110131,0.049144,0.034217,0.000000,0.000000,0.000000,1.000000,0.251654,-0.000000,-0.000000,0.000000,0.000000,0.000000,0.000000,-2.857208,0.000000
1762205224.467430,1.552162,-0.040217,0.802504,-0.016552,0.071340,-2.857208,0.210085,0.082282,0.077163,0.000000,0.000000,0.000000,1.000000,0.268102,-0.000000,-0.000000,0.000000,0.000000,0.000000,0.000000,-2.857208,0.000000
1762205224.500754,1.552162,-0.040217,0.802504,-0.016552,0.071340,-2.857208,0.210085,0.082282,0.077163,0.000000,0.000000,0.000000,0.876705,-0.000000,-0.000000,-0.000000,0.000000,0.000000,0.000000,0.000000,-2.857208,0.000000
1762205224.534102,1.540896,-0.048920,0.807373,-0.018636,0.082013,-2.858659,0.209965,0.082587,0.077163,0.000000,0.000000,0.000000,-0.000000,-0.000000,-0.000000,-0.000000,0.000000,0.000000,0.000000,0.000000,-2.858659,0.000000
1762205224.567391,1.530062,-0.057287,0.812054,-0.018636,0.082013,-2.858659,0.209965,0.082587,0.077163,0.000000,0.000000,0.000000,-0.000000,-0.000000,-0.000000,-0.000000,0.000000,0.000000,0.000000,0.000000,-2.858659,0.000000
1762205224.600756,1.530062,-0.057287,0.812054,-0.018636,0.082013,-2.858659,0.209965,0.082587,0.077163,0.000000,0.000000,0.000000,-0.000000,-0.000000,-0.000000,-0.000000,0.000000,0.000000,0.000000,0.000000,-2.858659,0.000000
1762205224.634076,1.530062,-0.057287,0.812054,-0.018636,0.082013,-2.858659,0.209965,0.082587,0.077163,0.000000,0.000000,0.000000,-0.000000,-0.000000,-0.000000,-0.000000,0.000000,0.000000,0.000000,0.000000,-2.858659,0.000000
1762205224.667433,1.506430,-0.072438,0.817725,-0.018636,0.082013,-2.858659,0.393383,0.116170,0.082855,0.000000,0.000000,0.000000,-0.000000,-0.000000,-0.000000,-0.000000,0.000000,0.000000,0.000000,0.000000,-2.858659,0.000000
1762205224.700760,1.506430,-0.072438,0.817725,-0.018636,0.082013,-2.858659,0.393383,0.116170,0.082855,0.000000,0.000000,0.000000,-0.000000,-0.000000,-0.000000,-0.000000,0.000000,0.000000,0.000000,0.000000,-2.858659,0.000000
1762205224.734042,1.474231,-0.093080,0.825451,-0.014308,0.084821,-2.857891,0.393472,0.115868,0.082855,0.000000,0.000000,0.000000,-0.000000,-0.000000,-0.000000,-0.000000,0.000000,0.000000,0.000000,0.000000,-2.857891,0.000000
1762205224.767493,1.474231,-0.093080,0.825451,-0.014308,0.084821,-2.857891,0.393472,0.115868,0.082855,0.000000,0.000000,0.000000,-0.000000,-0.000000,-0.000000,-0.000000,0.000000,0.000000,0.000000,0.000000,-2.857891,0.000000
1762205224.800705,1.457953,-0.103515,0.829356,-0.014308,0.084821,-2.857891,0.393472,0.115868,0.082855,0.000000,0.000000,0.000000,-0.000000,-0.000000,-0.000000,-0.000000,0.000000,0.000000,0.000000,0.000000,-2.857891,0.000000
1762205224.834004,1.433858,-0.116640,0.832001,-0.014308,0.084821,-2.857891,0.461273,0.100760,0.045513,0.000000,0.000000,0.000000,-0.000000,-0.000000,-0.000000,-0.000000,0.000000,0.000000,0.000000,0.000000,-2.857891,0.000000
1762205224.867389,1.433858,-0.116640,0.832001,-0.014308,0.084821,-2.857891,0.461273,0.100760,0.045513,0.000000,0.000000,0.000000,-0.000000,-0.000000,-0.000000,-0.000000,0.000000,0.000000,0.000000,0.000000,-2.857891,0.000000
1762205224.900781,1.433858,-0.116640,0.832001,-0.014308,0.084821,-2.857891,0.461273,0.100760,0.045513,0.000000,0.000000,0.000000,-0.000000,-0.000000,-0.000000,-0.000000,0.000000,0.000000,0.000000,0.000000,-2.857891,0.000000
1762205224.934079,1.403378,-0.133242,0.835347,0.023343,-0.061525,-2.854505,0.461612,0.099197,0.045513,0.000000,0.000000,0.000000,-0.000000,-0.000000,-0.000000,-0.000000,0.000000,0.000000,0.000000,0.000000,-2.854505,0.000000
1762205224.967368,1.403378,-0.133242,0.835347,0.023343,-0.061525,-2.854505,0.461612,0.099197,0.045513,0.000000,0.000000,0.000000,-0.000000,-0.000000,-0.000000,-0.000000,0.000000,0.000000,0.000000,0.000000,-2.854505,0.000000
1762205225.000872,1.377000,-0.147610,0.838243,0.023343,-0.061525,-2.854505,0.461612,0.099197,0.045513,0.000000,0.000000,0.000000,-0.000000,-0.000000,-0.000000,-0.000000,0.000000,0.000000,0.000000,0.000000,-2.854505,0.000000
1762205225.034035,1.362679,-0.155603,0.839356,0.023343,-0.061525,-2.854505,0.274888,0.062036,0.019132,0.000000,0.000000,0.000000,-0.000000,-1.000000,-0.000000,-0.000000,0.000000,0.000000,0.000000,0.000000,-2.854505,0.000000
1762205225.067401,1.362679,-0.155603,0.839356,0.023343,-0.061525,-2.854505,0.274888,0.062036,0.019132,0.000000,0.000000,0.000000,-0.000000,-1.000000,-0.000000,-0.000000,0.000000,0.000000,0.000000,0.000000,-2.854505,0.000000
1762205225.100717,1.362679,-0.155603,0.839356,0.023343,-0.061525,-2.854505,0.274888,0.062036,0.019132,0.000000,0.000000,0.000000,-0.000000,-1.000000,-0.000000,-0.000000,0.000000,0.000000,0.000000,0.000000,-2.854505,0.000000
1762205225.134000,1.343839,-0.166118,0.840821,0.021121,-0.095103,-2.855487,0.274826,0.062306,0.019132,0.000000,0.000000,0.000000,-0.000000,-1.000000,-0.000000,-0.000000,0.000000,0.000000,0.000000,0.000000,-2.855487,0.000000
1762205225.167401,1.343839,-0.166118,0.840821,0.021121,-0.095103,-2.855487,0.274826,0.062306,0.019132,0.000000,0.000000,0.000000,-0.000000,-1.000000,-0.000000,-0.000000,0.000000,0.000000,0.000000,0.000000,-2.855487,0.000000
1762205225.200882,1.328134,-0.174883,0.842042,0.021121,-0.095103,-2.855487,0.274826,0.062306,0.019132,0.000000,0.000000,0.000000,-0.000000,-1.000000,-0.000000,-0.000000,0.000000,0.000000,0.000000,0.000000,-2.855487,0.000000
1762205225.234009,1.324158,-0.178918,0.844604,0.021121,-0.095103,-2.855487,0.077800,0.043189,0.040247,0.000000,0.000000,0.000000,-0.000000,-1.000000,-0.000000,-0.000000,0.000000,0.000000,0.000000,0.000000,-2.855487,0.000000
1762205225.267386,1.324158,-0.178918,0.844604,0.021121,-0.095103,-2.855487,0.077800,0.043189,0.040247,0.000000,0.000000,0.000000,-0.000000,-1.000000,-0.000000,-0.000000,0.000000,0.000000,0.000000,0.000000,-2.855487,0.000000
1762205225.300841,1.324158,-0.178918,0.844604,0.021121,-0.095103,-2.855487,0.077800,0.043189,0.040247,0.000000,0.000000,0.000000,-0.000000,-1.000000,-0.000000,-0.000000,0.000000,0.000000,0.000000,0.000000,-2.855487,0.000000
1762205225.334045,1.319655,-0.183490,0.847507,0.039936,-0.050092,-2.854899,0.077825,0.043143,0.040247,0.000000,0.000000,0.000000,-0.000000,-1.000000,-0.000000,-0.000000,0.000000,0.000000,0.000000,0.000000,-2.854899,0.000000
1762205225.367353,1.319655,-0.183490,0.847507,0.039936,-0.050092,-2.854899,0.077825,0.043143,0.040247,0.000000,0.000000,0.000000,-0.000000,-1.000000,-0.000000,-0.000000,0.000000,0.000000,0.000000,0.000000,-2.854899,0.000000
1762205225.400702,1.315707,-0.187497,0.850051,0.039936,-0.050092,-2.854899,0.077825,0.043143,0.040247,0.000000,0.000000,0.000000,-0.000000,-1.000000,-0.000000,-0.000000,0.000000,0.000000,0.000000,0.000000,-2.854899,0.000000
1762205225.433998,1.315707,-0.187497,0.850051,0.039936,-0.050092,-2.854899,0.077825,0.043143,0.040247,0.000000,0.000000,0.000000,-0.000000,-1.000000,-0.000000,-0.000000,0.000000,0.000000,0.000000,0.000000,-2.854899,0.000000
1762205225.467399,1.311546,-0.191721,0.852733,0.039936,-0.050092,-2.854899,0.077825,0.043143,0.040247,0.000000,0.000000,0.000000,-0.000000,-1.000000,-0.000000,-0.000000,0.000000,0.000000,0.000000,0.000000,-2.854899,0.000000
1762205225.500707,1.307725,-0.189315,0.856089,0.084281,-0.018327,-2.855812,0.047052,-0.053318,0.052860,0.000000,0.000000,0.000000,-0.000000,-1.000000,-0.000000,-0.000000,0.000000,0.000000,0.000000,0.000000,-2.855812,0.000000
1762205225.534012,1.307725,-0.189315,0.856089,0.084281,-0.018327,-2.855812,0.047052,-0.053318,0.052860,0.000000,0.000000,0.000000,-0.000000,-1.000000,-0.000000,-0.000000,0.000000,0.000000,0.000000,0.000000,-2.855812,0.000000
1762205225.567396,1.303991,-0.186964,0.859369,0.084281,-0.018327,-2.855812,0.047052,-0.053318,0.052860,0.000000,0.000000,0.000000,-0.000000,-1.000000,-0.000000,-0.000000,0.000000,0.000000,0.000000,0.000000,-2.855812,0.000000
1762205225.600694,1.303991,-0.186964,0.859369,0.084281,-0.018327,-2.855812,0.047052,-0.053318,0.052860,0.000000,0.000000,0.000000,-0.000000,-1.000000,-0.000000,-0.000000,0.000000,0.000000,0.000000,0.000000,-2.855812,0.000000
1762205225.633994,1.298723,-0.176025,0.863176,0.084281,-0.018327,-2.855812,0.026950,-0.163839,0.052054,0.000000,0.000000,0.000000,-0.000000,-1.000000,-0.000000,-0.000000,0.000000,0.000000,0.000000,0.000000,-2.855812,0.000000
1762205225.667418,1.298723,-0.176025,0.863176,0.084281,-0.018327,-2.855812,0.026950,-0.163839,0.052054,0.000000,0.000000,0.000000,-0.000000,-1.000000,-0.000000,-0.000000,0.000000,0.000000,0.000000,0.000000,-2.855812,0.000000
1762205225.700717,1.293961,-0.166137,0.866616,0.090046,-0.009048,-2.855500,0.026899,-0.163848,0.052054,0.000000,0.000000,0.000000,-0.000000,-1.000000,-0.000000,-0.000000,0.000000,0.000000,0.000000,0.000000,-2.855500,0.000000
1762205225.734167,1.293961,-0.166137,0.866616,0.090046,-0.009048,-2.855500,0.026899,-0.163848,0.052054,0.000000,0.000000,0.000000,-0.000000,-1.000000,-0.000000,-0.000000,0.000000,0.000000,0.000000,0.000000,-2.855500,0.000000
1762205225.767365,1.293961,-0.166137,0.866616,0.090046,-0.009048,-2.855500,0.026899,-0.163848,0.052054,0.000000,0.000000,0.000000,-0.000000,-1.000000,-0.000000,-0.000000,0.000000,0.000000,0.000000,0.000000,-2.855500,0.000000
1762205225.800736,1.288559,-0.154921,0.870519,0.090046,-0.009048,-2.855500,0.026899,-0.163848,0.052054,0.000000,0.000000,0.000000,-0.000000,-1.000000,-0.000000,-0.000000,0.000000,0.000000,0.000000,0.000000,-2.855500,0.000000
1762205225.834040,1.288559,-0.154921,0.870519,0.090046,-0.009048,-2.855500,0.026899,-0.163848,0.052054,0.000000,0.000000,0.000000,-0.000000,-1.000000,-0.000000,-0.000000,0.000000,0.000000,0.000000,0.000000,-2.855500,0.000000
1762205225.867362,1.282604,-0.139959,0.874034,0.090046,-0.009048,-2.855500,0.024185,-0.260140,0.057033,0.000000,0.000000,0.000000,-0.000000,-1.000000,-0.000000,-0.000000,0.000000,0.000000,0.000000,0.000000,-2.855500,0.000000
1762205225.900686,1.276303,-0.124127,0.877754,0.093363,-0.006809,-2.856685,0.024493,-0.260112,0.057033,0.000000,0.000000,0.000000,-0.000000,-1.000000,-0.000000,-0.000000,0.000000,0.000000,0.000000,0.000000,-2.856685,0.000000
1762205225.934075,1.276303,-0.124127,0.877754,0.093363,-0.006809,-2.856685,0.024493,-0.260112,0.057033,0.000000,0.000000,0.000000,-0.000000,-1.000000,-0.000000,-0.000000,0.000000,0.000000,0.000000,0.000000,-2.856685,0.000000
1762205225.967349,1.269878,-0.107986,0.881547,0.093363,-0.006809,-2.856685,0.024493,-0.260112,0.057033,0.000000,0.000000,0.000000,-0.000000,-1.000000,-0.000000,-0.000000,0.000000,0.000000,0.000000,0.000000,-2.856685,0.000000
1762205226.000759,1.269878,-0.107986,0.881547,0.093363,-0.006809,-2.856685,0.024493,-0.260112,0.057033,0.000000,0.000000,0.000000,-0.000000,-1.000000,-0.000000,-0.000000,0.000000,0.000000,0.000000,0.000000,-2.856685,0.000000
1762205226.034118,1.269878,-0.107986,0.881547,0.093363,-0.006809,-2.856685,0.024493,-0.260112,0.057033,0.000000,0.000000,0.000000,-0.000000,-1.000000,-0.000000,-0.000000,0.000000,0.000000,0.000000,0.000000,-2.856685,0.000000
1762205226.067404,1.260818,-0.082205,0.882911,0.093363,-0.006809,-2.856685,0.021178,-0.398694,0.019940,0.000000,0.000000,0.000000,-0.000000,-1.000000,-0.000000,-0.000000,0.000000,0.000000,0.000000,0.000000,-2.856685,0.000000
1762205226.100766,1.260818,-0.082205,0.882911,0.093363,-0.006809,-2.856685,0.021178,-0.398694,0.019940,0.000000,0.000000,0.000000,-0.000000,-1.000000,-0.000000,-0.000000,0.000000,0.000000,0.000000,0.000000,-2.856685,0.000000
1762205226.134036,1.251548,-0.055832,0.884308,0.095737,-0.005249,-2.855611,0.020750,-0.398717,0.019940,0.000000,0.000000,0.000000,-0.000000,-1.000000,-0.000000,-0.000000,0.000000,0.000000,0.000000,0.000000,-2.855611,0.000000
1762205226.167330,1.243384,-0.032603,0.885537,0.095737,-0.005249,-2.855611,0.020750,-0.398717,0.019940,0.000000,0.000000,0.000000,-0.000000,-1.000000,-0.000000,-0.000000,0.000000,0.000000,0.000000,0.000000,-2.855611,0.000000
1762205226.200667,1.243384,-0.032603,0.885537,0.095737,-0.005249,-2.855611,0.020750,-0.398717,0.019940,0.000000,0.000000,0.000000,-0.000000,-1.000000,-0.000000,-0.000000,0.000000,0.000000,0.000000,0.000000,-2.855611,0.000000
1762205226.234047,1.243384,-0.032603,0.885537,0.095737,-0.005249,-2.855611,0.020750,-0.398717,0.019940,0.000000,0.000000,0.000000,-0.000000,-1.000000,-0.000000,-0.000000,0.000000,0.000000,0.000000,0.000000,-2.855611,0.000000
1762205226.267457,1.231246,0.003942,0.885632,0.095737,-0.005249,-2.855611,0.019128,-0.550997,0.001358,0.000000,0.000000,0.000000,-0.000000,-1.000000,-0.000000,-0.000000,0.000000,0.000000,0.000000,0.000000,-2.855611,0.000000
1762205226.300785,1.231246,0.003942,0.885632,0.095737,-0.005249,-2.855611,0.019128,-0.550997,0.001358,0.000000,0.000000,0.000000,-0.000000,-1.000000,-0.000000,-0.000000,0.000000,0.000000,0.000000,0.000000,-2.855611,0.000000
1762205226.334049,1.220175,0.037272,0.885719,0.094246,-0.006229,-2.855378,0.019000,-0.551001,0.001358,0.000000,0.000000,0.000000,-0.000000,-1.000000,-0.000000,-0.000000,0.000000,0.000000,0.000000,0.000000,-2.855378,0.000000
1762205226.367371,1.220175,0.037272,0.885719,0.094246,-0.006229,-2.855378,0.019000,-0.551001,0.001358,0.000000,0.000000,0.000000,-0.000000,-1.000000,-0.000000,-0.000000,0.000000,0.000000,0.000000,0.000000,-2.855378,0.000000
1762205226.400720,1.207886,0.074273,0.885815,0.094246,-0.006229,-2.855378,0.019000,-0.551001,0.001358,0.000000,0.000000,0.000000,-0.000000,-1.000000,-0.000000,-0.000000,0.000000,0.000000,0.000000,0.000000,-2.855378,0.000000
1762205226.434020,1.207886,0.074273,0.885815,0.094246,-0.006229,-2.855378,0.019000,-0.551001,0.001358,0.000000,0.000000,0.000000,-0.000000,-1.000000,-0.000000,-0.000000,0.000000,0.000000,0.000000,0.000000,-2.855378,0.000000
1762205226.467373,1.194472,0.114657,0.885919,0.094246,-0.006229,-2.855378,0.019000,-0.551001,0.001358,0.000000,0.000000,0.000000,-0.000000,-1.000000,-0.000000,-0.000000,0.000000,0.000000,0.000000,0.000000,-2.855378,0.000000
1762205226.500713,1.194472,0.114657,0.885919,0.094246,-0.006229,-2.855378,0.019000,-0.551001,0.001358,0.000000,0.000000,0.000000,-0.000000,-1.000000,-0.000000,-0.000000,0.000000,0.000000,0.000000,0.000000,-2.855378,0.000000
1762205226.534046,1.183758,0.148542,0.886602,0.094766,-0.004812,-2.856985,0.014397,-0.665308,0.012788,0.000000,0.000000,0.000000,-0.000000,-1.000000,-0.000000,-0.000000,0.000000,0.000000,0.000000,0.000000,-2.856985,0.000000
1762205226.567391,1.183758,0.148542,0.886602,0.094766,-0.004812,-2.856985,0.014397,-0.665308,0.012788,0.000000,0.000000,0.000000,-0.000000,-1.000000,-0.000000,-0.000000,0.000000,0.000000,0.000000,0.000000,-2.856985,0.000000
1762205226.600708,1.170076,0.191815,0.887474,0.094766,-0.004812,-2.856985,0.014397,-0.665308,0.012788,0.000000,0.000000,0.000000,-0.000000,-1.000000,-0.000000,-0.000000,0.000000,0.000000,0.000000,0.000000,-2.856985,0.000000
1762205226.634109,1.170076,0.191815,0.887474,0.094766,-0.004812,-2.856985,0.014397,-0.665308,0.012788,0.000000,0.000000,0.000000,-0.000000,-1.000000,-0.000000,-0.000000,0.000000,0.000000,0.000000,0.000000,-2.856985,0.000000
1762205226.667416,1.154422,0.242177,0.888420,0.094766,-0.004812,-2.856985,0.013471,-0.804086,0.014412,0.000000,0.000000,0.000000,-0.000000,-1.000000,-0.000000,-0.000000,0.000000,0.000000,0.000000,0.000000,-2.856985,0.000000
1762205226.700899,1.154422,0.242177,0.888420,0.094766,-0.004812,-2.856985,0.013471,-0.804086,0.014412,0.000000,0.000000,0.000000,-0.000000,-1.000000,-0.000000,-0.000000,0.000000,0.000000,0.000000,0.000000,-2.856985,0.000000
1762205226.734048,1.137535,0.296506,0.889439,0.095199,-0.005251,-2.857939,0.014238,-0.804073,0.014412,0.000000,0.000000,0.000000,-0.000000,-1.000000,-0.000000,-0.000000,0.000000,0.000000,0.000000,0.000000,-2.857939,0.000000
1762205226.767435,1.137535,0.296506,0.889439,0.095199,-0.005251,-2.857939,0.014238,-0.804073,0.014412,0.000000,0.000000,0.000000,-0.000000,-1.000000,-0.000000,-0.000000,0.000000,0.000000,0.000000,0.000000,-2.857939,0.000000
1762205226.800877,1.122276,0.345598,0.890360,0.095199,-0.005251,-2.857939,0.014238,-0.804073,0.014412,0.000000,0.000000,0.000000,-0.000000,-1.000000,-0.000000,-0.000000,0.000000,0.000000,0.000000,0.000000,-2.857939,0.000000
1762205226.834015,1.112615,0.376679,0.890944,0.095199,-0.005251,-2.857939,0.014238,-0.804073,0.014412,0.000000,0.000000,0.000000,-0.000000,-1.000000,-0.000000,-0.000000,0.000000,0.000000,0.000000,0.000000,-2.857939,0.000000
1762205226.867383,1.112615,0.376679,0.890944,0.095199,-0.005251,-2.857939,0.014238,-0.804073,0.014412,0.000000,0.000000,0.000000,-0.000000,-1.000000,-0.000000,-0.000000,0.000000,0.000000,0.000000,0.000000,-2.857939,0.000000
1762205226.900730,1.088864,0.455573,0.892322,0.089740,-0.005427,-2.858388,0.008489,-0.921226,0.015406,0.000000,0.000000,0.000000,-0.000000,-1.000000,-0.000000,-0.000000,0.000000,0.000000,0.000000,0.000000,-2.858388,0.000000
1762205226.934044,1.088864,0.455573,0.892322,0.089740,-0.005427,-2.858388,0.008489,-0.921226,0.015406,0.000000,0.000000,0.000000,-0.000000,-1.000000,-0.000000,-0.000000,0.000000,0.000000,0.000000,0.000000,-2.858388,0.000000
1762205226.967396,1.071709,0.512559,0.893317,0.089740,-0.005427,-2.858388,0.008489,-0.921226,0.015406,0.000000,0.000000,0.000000,-0.000000,-1.000000,-0.000000,-0.000000,0.000000,0.000000,0.000000,0.000000,-2.858388,0.000000
1762205227.000784,1.071709,0.512559,0.893317,0.089740,-0.005427,-2.858388,0.008489,-0.921226,0.015406,0.000000,0.000000,0.000000,-0.000000,-1.000000,-0.000000,-0.000000,0.000000,0.000000,0.000000,0.000000,-2.858388,0.000000
1762205227.034062,1.071709,0.512559,0.893317,0.089740,-0.005427,-2.858388,0.008489,-0.921226,0.015406,0.000000,0.000000,0.000000,-0.000000,-1.000000,-0.000000,-0.000000,0.000000,0.000000,0.000000,0.000000,-2.858388,0.000000
1762205227.067366,1.050716,0.584167,0.893258,0.089740,-0.005427,-2.858388,0.002023,-1.033105,-0.000818,0.000000,0.000000,0.000000,-0.000000,-1.000000,-0.000000,-0.000000,0.000000,0.000000,0.000000,0.000000,-2.858388,0.000000
1762205227.100659,1.032296,0.647002,0.893206,0.090815,-0.004591,-2.858842,0.002492,-1.033104,-0.000818,0.000000,0.000000,0.000000,-0.000000,-1.000000,-0.000000,-0.000000,0.000000,0.000000,0.000000,0.000000,-2.858842,0.000000
1762205227.134088,1.032296,0.647002,0.893206,0.090815,-0.004591,-2.858842,0.002492,-1.033104,-0.000818,0.000000,0.000000,0.000000,-0.000000,-1.000000,-0.000000,-0.000000,0.000000,0.000000,0.000000,0.000000,-2.858842,0.000000
1762205227.167424,1.013648,0.710613,0.893153,0.090815,-0.004591,-2.858842,0.002492,-1.033104,-0.000818,0.000000,0.000000,0.000000,-0.000000,-1.000000,-0.000000,-0.000000,0.000000,0.000000,0.000000,0.000000,-2.858842,0.000000
1762205227.200740,1.013648,0.710613,0.893153,0.090815,-0.004591,-2.858842,0.002492,-1.033104,-0.000818,0.000000,0.000000,0.000000,-0.000000,-1.000000,-0.000000,-0.000000,0.000000,0.000000,0.000000,0.000000,-2.858842,0.000000
1762205227.234025,1.000149,0.757739,0.893098,0.090815,-0.004591,-2.858842,-0.004241,-1.124396,-0.001267,0.000000,0.000000,0.000000,-0.000000,-1.000000,-0.000000,-0.000000,0.000000,0.000000,0.000000,0.000000,-2.858842,0.000000
1762205227.267381,1.000149,0.757739,0.893098,0.090815,-0.004591,-2.858842,-0.004241,-1.124396,-0.001267,0.000000,0.000000,0.000000,-0.000000,-1.000000,-0.000000,-0.000000,0.000000,0.000000,0.000000,0.000000,-2.858842,0.000000
1762205227.300695,1.000149,0.757739,0.893098,0.090815,-0.004591,-2.858842,-0.004241,-1.124396,-0.001267,0.000000,0.000000,0.000000,-0.000000,-1.000000,-0.000000,-0.000000,0.000000,0.000000,0.000000,0.000000,-2.858842,0.000000
1762205227.334061,0.971396,0.858119,0.892980,0.091275,-0.004944,-2.859881,-0.003073,-1.124400,-0.001267,0.000000,0.000000,0.000000,-0.000000,-1.000000,-0.000000,-0.000000,0.000000,0.000000,0.000000,0.000000,-2.859881,0.000000
1762205227.367491,0.971396,0.858119,0.892980,0.091275,-0.004944,-2.859881,-0.003073,-1.124400,-0.001267,0.000000,0.000000,0.000000,-0.000000,-1.000000,-0.000000,-0.000000,0.000000,0.000000,0.000000,0.000000,-2.859881,0.000000
1762205227.400723,0.949149,0.935782,0.892889,0.091275,-0.004944,-2.859881,-0.003073,-1.124400,-0.001267,0.000000,0.000000,0.000000,-0.000000,-1.000000,-0.000000,-0.000000,0.000000,0.000000,0.000000,0.000000,-2.859881,0.000000
1762205227.434074,0.938795,0.971930,0.892847,0.091275,-0.004944,-2.859881,-0.003073,-1.124400,-0.001267,0.000000,0.000000,0.000000,-0.000000,-1.000000,-0.000000,-0.000000,0.000000,0.000000,0.000000,0.000000,-2.859881,0.000000
1762205227.467402,0.938795,0.971930,0.892847,0.091275,-0.004944,-2.859881,-0.003073,-1.124400,-0.001267,0.000000,0.000000,0.000000,-0.000000,-1.000000,-0.000000,-0.000000,0.000000,0.000000,0.000000,0.000000,-2.859881,0.000000
1762205227.500765,0.918567,1.044764,0.893524,0.091275,-0.004944,-2.859881,-0.012845,-1.187616,0.010639,0.000000,0.000000,0.000000,-0.000000,-1.000000,-0.000000,-0.000000,0.000000,0.000000,0.000000,0.000000,-2.859881,0.000000
1762205227.534056,0.918567,1.044764,0.893524,0.091275,-0.004944,-2.859881,-0.012845,-1.187616,0.010639,0.000000,0.000000,0.000000,-0.000000,-0.613507,-0.000000,-0.000000,0.000000,0.000000,0.000000,0.000000,-2.859881,0.000000
1762205227.567542,0.897212,1.121655,0.894239,0.086539,-0.004304,-2.862292,-0.009982,-1.187643,0.010639,0.000000,0.000000,0.000000,-0.000000,-0.111847,-0.000000,-0.000000,0.000000,0.000000,0.000000,0.000000,-2.862292,0.000000
1762205227.600696,0.897212,1.121655,0.894239,0.086539,-0.004304,-2.862292,-0.009982,-1.187643,0.010639,0.000000,0.000000,0.000000,-0.000000,-0.000000,-0.000000,-0.000000,0.000000,0.000000,0.000000,0.000000,-2.862292,0.000000
1762205227.634007,0.865498,1.236928,0.897406,0.086539,-0.004304,-2.862292,-0.013401,-1.238190,0.032799,0.000000,0.000000,0.000000,-0.000000,-0.000000,-0.000000,-0.000000,0.000000,0.000000,0.000000,0.000000,-2.862292,0.000000
1762205227.667385,0.865498,1.236928,0.897406,0.086539,-0.004304,-2.862292,-0.013401,-1.238190,0.032799,0.000000,0.000000,0.000000,-0.000000,-0.000000,-0.000000,-0.000000,0.000000,0.000000,0.000000,0.000000,-2.862292,0.000000
1762205227.700734,0.852162,1.285404,0.898738,0.088483,-0.003821,-2.859500,-0.016858,-1.238147,0.032799,0.000000,0.000000,0.000000,-0.000000,-0.000000,-0.000000,-0.000000,0.000000,0.000000,0.000000,0.000000,-2.859500,0.000000
1762205227.734048,0.852162,1.285404,0.898738,0.088483,-0.003821,-2.859500,-0.016858,-1.238147,0.032799,0.000000,0.000000,0.000000,-0.000000,-0.000000,-0.000000,-0.000000,0.000000,0.000000,0.000000,0.000000,-2.859500,0.000000
1762205227.767416,0.831830,1.359307,0.900768,0.088483,-0.003821,-2.859500,-0.016858,-1.238147,0.032799,0.000000,0.000000,0.000000,-0.000000,-0.000000,-0.000000,-0.000000,0.000000,0.000000,0.000000,0.000000,-2.859500,0.000000
1762205227.800706,0.810878,1.435460,0.902860,0.088483,-0.003821,-2.859500,-0.016858,-1.238147,0.032799,0.000000,0.000000,0.000000,-0.000000,-0.000000,-0.000000,-0.000000,0.000000,0.000000,0.000000,0.000000,-2.859500,0.000000
1762205227.834046,0.810878,1.435460,0.902860,0.088483,-0.003821,-2.859500,-0.016858,-1.238147,0.032799,0.000000,0.000000,0.000000,-0.000000,-0.000000,-0.000000,-0.000000,0.000000,0.000000,0.000000,0.000000,-2.859500,0.000000
1762205227.867441,0.810878,1.435460,0.902860,0.088483,-0.003821,-2.859500,-0.016858,-1.238147,0.032799,0.000000,0.000000,0.000000,-0.000000,-0.000000,-0.000000,-0.000000,0.000000,0.000000,0.000000,0.000000,-2.859500,0.000000
1762205227.900784,0.789457,1.514785,0.903990,-0.118241,-0.001800,-2.861414,-0.019549,-1.190273,0.016377,0.000000,0.000000,0.000000,-0.000000,-0.000000,-0.000000,-0.000000,0.000000,0.000000,0.000000,0.000000,-2.861414,0.000000
1762205227.934017,0.789457,1.514785,0.903990,-0.118241,-0.001800,-2.861414,-0.019549,-1.190273,0.016377,0.000000,0.000000,0.000000,-0.000000,-0.000000,-0.000000,-0.000000,0.000000,0.000000,0.000000,0.000000,-2.861414,0.000000
1762205227.967402,0.767970,1.594350,0.905124,-0.118241,-0.001800,-2.861414,-0.019549,-1.190273,0.016377,0.000000,0.000000,0.000000,-0.000000,-0.000000,-0.000000,-0.000000,0.000000,0.000000,0.000000,0.000000,-2.861414,0.000000
1762205228.000701,0.767970,1.594350,0.905124,-0.118241,-0.001800,-2.861414,-0.019549,-1.190273,0.016377,0.000000,0.000000,0.000000,-0.000000,-0.000000,-0.000000,-0.000000,0.000000,0.000000,0.000000,0.000000,-2.861414,0.000000
1762205228.034066,0.747235,1.671134,0.906218,-0.118241,-0.001800,-2.861414,-0.019549,-1.190273,0.016377,0.000000,0.000000,0.000000,-0.000000,-0.000000,-0.000000,-0.000000,0.000000,0.000000,0.000000,0.000000,-2.861414,0.000000
1762205228.067557,0.747235,1.671134,0.906218,-0.118241,-0.001800,-2.861414,-0.019549,-1.190273,0.016377,0.000000,0.000000,0.000000,-0.000000,-0.000000,-0.000000,-0.000000,0.000000,0.000000,0.000000,0.000000,-2.861414,0.000000
1762205228.100742,0.737816,1.705709,0.906984,-0.135723,0.006555,-2.861754,-0.007530,-0.542479,0.011589,0.000000,0.000000,0.000000,-0.000000,-0.000000,-0.000000,-0.000000,0.000000,0.000000,0.000000,0.000000,-2.861754,0.000000
1762205228.134068,0.737816,1.705709,0.906984,-0.135723,0.006555,-2.861754,-0.007530,-0.542479,0.011589,0.000000,0.000000,0.000000,-0.000000,-0.000000,-0.000000,-0.000000,0.000000,0.000000,0.000000,0.000000,-2.861754,0.000000
1762205228.167381,0.727888,1.742156,0.907791,-0.135723,0.006555,-2.861754,-0.007530,-0.542479,0.011589,0.000000,0.000000,0.000000,-0.000000,-0.000000,-0.000000,-0.000000,0.000000,0.000000,0.000000,0.000000,-2.861754,0.000000
1762205228.200722,0.727888,1.742156,0.907791,-0.135723,0.006555,-2.861754,-0.007530,-0.542479,0.011589,0.000000,0.000000,0.000000,-0.000000,-0.000000,-0.000000,-0.000000,0.000000,0.000000,0.000000,0.000000,-2.861754,0.000000
1762205228.234038,0.718825,1.775427,0.908527,-0.135723,0.006555,-2.861754,-0.007530,-0.542479,0.011589,0.000000,0.000000,0.000000,-0.000000,-0.000000,-0.000000,-0.000000,0.000000,0.000000,0.000000,0.000000,-2.861754,0.000000
1762205228.267374,0.718825,1.775427,0.908527,-0.135723,0.006555,-2.861754,-0.007530,-0.542479,0.011589,0.000000,0.000000,0.000000,-0.000000,-0.000000,-0.000000,-0.000000,0.000000,0.000000,0.000000,0.000000,-2.861754,0.000000
1762205228.300690,0.711259,1.801610,0.907482,-0.130820,-0.001776,-2.860237,-0.000028,-0.415702,-0.015945,0.000000,0.000000,0.000000,-0.000000,-0.000000,-0.000000,-0.000000,0.000000,0.000000,0.000000,0.000000,-2.860237,0.000000
1762205228.334046,0.711259,1.801610,0.907482,-0.130820,-0.001776,-2.860237,-0.000028,-0.415702,-0.015945,0.000000,0.000000,0.000000,-0.000000,-0.000000,-0.000000,-0.000000,0.000000,0.000000,0.000000,0.000000,-2.860237,0.000000
1762205228.367394,0.703347,1.828992,0.906389,-0.130820,-0.001776,-2.860237,-0.000028,-0.415702,-0.015945,0.000000,0.000000,0.000000,-0.000000,-0.000000,-0.000000,-0.000000,0.000000,0.000000,0.000000,0.000000,-2.860237,0.000000
1762205228.400685,0.696960,1.851096,0.905506,-0.130820,-0.001776,-2.860237,-0.000028,-0.415702,-0.015945,0.000000,0.000000,0.000000,-0.000000,-0.000000,-0.000000,-0.000000,0.000000,0.000000,0.000000,0.000000,-2.860237,0.000000
1762205228.434008,0.696960,1.851096,0.905506,-0.130820,-0.001776,-2.860237,-0.000028,-0.415702,-0.015945,0.000000,0.000000,0.000000,-0.000000,-0.000000,-0.000000,-0.000000,0.000000,0.000000,0.000000,0.000000,-2.860237,0.000000
1762205228.467380,0.696960,1.851096,0.905506,-0.130820,-0.001776,-2.860237,-0.000028,-0.415702,-0.015945,0.000000,0.000000,0.000000,-0.000000,-0.000000,-0.000000,-0.000000,0.000000,0.000000,0.000000,0.000000,-2.860237,0.000000
1762205228.500724,0.692674,1.864689,0.906025,-0.130820,-0.001776,-2.860237,0.004454,-0.185039,0.006743,0.000000,0.000000,0.000000,-0.000000,-0.000000,-0.000000,-0.000000,0.000000,0.000000,0.000000,0.000000,-2.860237,0.000000
1762205228.534028,0.692674,1.864689,0.906025,-0.130820,-0.001776,-2.860237,0.004454,-0.185039,0.006743,0.000000,0.000000,0.000000,-0.000000,-0.000000,-0.000000,-0.000000,0.000000,0.000000,0.000000,0.000000,-2.860237,0.000000
1762205228.567376,0.688633,1.877508,0.906515,-0.077924,-0.004195,-2.859460,0.004310,-0.185042,0.006743,0.000000,0.000000,0.000000,-0.000000,-0.000000,-0.000000,-0.000000,0.000000,0.000000,0.000000,0.000000,-2.859460,0.000000
1762205228.600714,0.688633,1.877508,0.906515,-0.077924,-0.004195,-2.859460,0.004310,-0.185042,0.006743,0.000000,0.000000,0.000000,-0.000000,-0.000000,-0.000000,-0.000000,0.000000,0.000000,0.000000,0.000000,-2.859460,0.000000
1762205228.634073,0.685361,1.887885,0.906911,-0.077924,-0.004195,-2.859460,0.004310,-0.185042,0.006743,0.000000,0.000000,0.000000,-0.000000,-0.000000,-0.000000,-0.000000,0.000000,0.000000,0.000000,0.000000,-2.859460,0.000000
1762205228.667417,0.685361,1.887885,0.906911,-0.077924,-0.004195,-2.859460,0.004310,-0.185042,0.006743,0.000000,0.000000,0.000000,-0.000000,-0.000000,-0.000000,-0.000000,0.000000,0.000000,0.000000,0.000000,-2.859460,0.000000
1762205228.700878,0.684035,1.890995,0.906132,-0.035380,-0.006242,-2.859040,0.005716,-0.047249,-0.010969,0.000000,0.000000,0.000000,-0.000000,-0.000000,-0.000000,-0.000000,0.000000,0.000000,0.000000,0.000000,-2.859040,0.000000
1762205228.734037,0.684035,1.890995,0.906132,-0.035380,-0.006242,-2.859040,0.005716,-0.047249,-0.010969,0.000000,0.000000,0.000000,-0.000000,-0.000000,-0.000000,-0.000000,0.000000,0.000000,0.000000,0.000000,-2.859040,0.000000
1762205228.767400,0.682895,1.893671,0.905462,-0.035380,-0.006242,-2.859040,0.005716,-0.047249,-0.010969,0.000000,0.000000,0.000000,-0.000000,-0.000000,-0.000000,-0.000000,0.000000,0.000000,0.000000,0.000000,-2.859040,0.000000
1762205228.800745,0.682895,1.893671,0.905462,-0.035380,-0.006242,-2.859040,0.005716,-0.047249,-0.010969,0.000000,0.000000,0.000000,-0.000000,-0.000000,-0.000000,-0.000000,0.000000,0.000000,0.000000,0.000000,-2.859040,0.000000
1762205228.834153,0.681500,1.896943,0.904642,-0.035380,-0.006242,-2.859040,0.005716,-0.047249,-0.010969,0.000000,0.000000,0.000000,-0.000000,-0.000000,-0.000000,-0.000000,0.000000,0.000000,0.000000,0.000000,-2.859040,0.000000
1762205228.867530,0.681500,1.896943,0.904642,-0.035380,-0.006242,-2.859040,0.005716,-0.047249,-0.010969,0.000000,0.000000,0.000000,-0.000000,-0.000000,-0.000000,-0.000000,0.000000,0.000000,0.000000,0.000000,-2.859040,0.000000
1762205228.900686,0.681223,1.897250,0.906001,-0.035380,-0.006242,-2.859040,0.002878,-0.005936,0.021673,0.000000,0.000000,0.000000,0.004968,-0.000000,-0.000000,-0.000000,0.000000,0.000000,0.000000,0.000000,-2.859040,0.000000
1762205228.934056,0.681223,1.897250,0.906001,-0.035380,-0.006242,-2.859040,0.002878,-0.005936,0.021673,0.000000,0.000000,0.000000,1.000000,-0.000000,-0.000000,-0.000000,0.000000,0.000000,0.000000,0.000000,-2.859040,0.000000
1762205228.967404,0.680902,1.897606,0.907577,-0.006085,-0.007045,-2.858315,0.002874,-0.005939,0.021673,0.000000,0.000000,0.000000,1.000000,-0.000000,-0.000000,-0.000000,0.000000,0.000000,0.000000,0.000000,-2.858315,0.000000
1762205229.000682,0.680902,1.897606,0.907577,-0.006085,-0.007045,-2.858315,0.002874,-0.005939,0.021673,0.000000,0.000000,0.000000,1.000000,-0.000000,-0.000000,-0.000000,0.000000,0.000000,0.000000,0.000000,-2.858315,0.000000
1762205229.034019,0.680649,1.897887,0.908818,-0.006085,-0.007045,-2.858315,0.002874,-0.005939,0.021673,0.000000,0.000000,0.000000,1.000000,-0.000000,-0.000000,-0.000000,0.000000,0.000000,0.000000,0.000000,-2.858315,0.000000
1762205229.067403,0.680649,1.897887,0.908818,-0.006085,-0.007045,-2.858315,0.002874,-0.005939,0.021673,0.000000,0.000000,0.000000,1.000000,-0.000000,-0.000000,-0.000000,0.000000,0.000000,0.000000,0.000000,-2.858315,0.000000
1762205229.100712,0.680762,1.897272,0.909668,0.004767,-0.008573,-2.858689,0.000904,0.008977,0.012269,0.000000,0.000000,0.000000,1.000000,-0.000000,-0.000000,-0.000000,0.000000,0.000000,0.000000,0.000000,-2.858689,0.000000
1762205229.133999,0.680762,1.897272,0.909668,0.004767,-0.008573,-2.858689,0.000904,0.008977,0.012269,0.000000,0.000000,0.000000,1.000000,-0.000000,-0.000000,-0.000000,0.000000,0.000000,0.000000,0.000000,-2.858689,0.000000
1762205229.167391,0.680868,1.896698,0.910462,0.004767,-0.008573,-2.858689,0.000904,0.008977,0.012269,0.000000,0.000000,0.000000,1.000000,-0.000000,-0.000000,-0.000000,0.000000,0.000000,0.000000,0.000000,-2.858689,0.000000
1762205229.200755,0.680868,1.896698,0.910462,0.004767,-0.008573,-2.858689,0.000904,0.008977,0.012269,0.000000,0.000000,0.000000,1.000000,-0.000000,-0.000000,-0.000000,0.000000,0.000000,0.000000,0.000000,-2.858689,0.000000
1762205229.234118,0.680984,1.896070,0.911330,0.004767,-0.008573,-2.858689,0.000904,0.008977,0.012269,0.000000,0.000000,0.000000,1.000000,-0.000000,-0.000000,-0.000000,0.000000,0.000000,0.000000,0.000000,-2.858689,0.000000
1762205229.267402,0.680984,1.896070,0.911330,0.004767,-0.008573,-2.858689,0.000904,0.008977,0.012269,0.000000,0.000000,0.000000,1.000000,-0.000000,-0.000000,-0.000000,0.000000,0.000000,0.000000,0.000000,-2.858689,0.000000
1762205229.300775,0.677549,1.894171,0.912743,0.010226,0.057636,-2.858314,0.061246,0.013806,0.022590,0.000000,0.000000,0.000000,1.000000,-0.000000,-0.000000,-0.000000,0.000000,0.000000,0.000000,0.000000,-2.858314,0.000000
1762205229.334129,0.677549,1.894171,0.912743,0.010226,0.057636,-2.858314,0.061246,0.013806,0.022590,0.000000,0.000000,0.000000,1.000000,-0.000000,-0.000000,-0.000000,0.000000,0.000000,0.000000,0.000000,-2.858314,0.000000
1762205229.367401,0.673681,1.892033,0.914333,0.010226,0.057636,-2.858314,0.061246,0.013806,0.022590,0.000000,0.000000,0.000000,1.000000,-0.000000,-0.000000,-0.000000,0.000000,0.000000,0.000000,0.000000,-2.858314,0.000000
1762205229.400722,0.673681,1.892033,0.914333,0.010226,0.057636,-2.858314,0.061246,0.013806,0.022590,0.000000,0.000000,0.000000,1.000000,-0.000000,-0.000000,-0.000000,0.000000,0.000000,0.000000,0.000000,-2.858314,0.000000
1762205229.434000,0.670146,1.890078,0.915786,0.010226,0.057636,-2.858314,0.061246,0.013806,0.022590,0.000000,0.000000,0.000000,1.000000,-0.000000,-0.000000,-0.000000,0.000000,0.000000,0.000000,0.000000,-2.858314,0.000000
1762205229.467377,0.670146,1.890078,0.915786,0.010226,0.057636,-2.858314,0.061246,0.013806,0.022590,0.000000,0.000000,0.000000,1.000000,-0.000000,-0.000000,-0.000000,0.000000,0.000000,0.000000,0.000000,-2.858314,0.000000
1762205229.500717,0.660503,1.886745,0.917685,0.010226,0.057636,-2.858314,0.154545,0.007659,0.028795,0.000000,0.000000,0.000000,1.000000,-0.000000,-0.000000,-0.000000,0.000000,0.000000,0.000000,0.000000,-2.858314,0.000000
1762205229.534032,0.660503,1.886745,0.917685,0.010226,0.057636,-2.858314,0.154545,0.007659,0.028795,0.000000,0.000000,0.000000,1.000000,-0.000000,-0.000000,-0.000000,0.000000,0.000000,0.000000,0.000000,-2.858314,0.000000
1762205229.567378,0.650438,1.883266,0.919666,0.009147,0.074549,-2.859142,0.154539,0.007787,0.028795,0.000000,0.000000,0.000000,1.000000,-0.000000,-0.000000,-0.000000,0.000000,0.000000,0.000000,0.000000,-2.859142,0.000000
1762205229.600712,0.650438,1.883266,0.919666,0.009147,0.074549,-2.859142,0.154539,0.007787,0.028795,0.000000,0.000000,0.000000,1.000000,-0.000000,-0.000000,-0.000000,0.000000,0.000000,0.000000,0.000000,-2.859142,0.000000
1762205229.633999,0.640166,1.879716,0.921689,0.009147,0.074549,-2.859142,0.154539,0.007787,0.028795,0.000000,0.000000,0.000000,1.000000,-0.000000,-0.000000,-0.000000,0.000000,0.000000,0.000000,0.000000,-2.859142,0.000000
1762205229.667410,0.640166,1.879716,0.921689,0.009147,0.074549,-2.859142,0.154539,0.007787,0.028795,0.000000,0.000000,0.000000,1.000000,-0.000000,-0.000000,-0.000000,0.000000,0.000000,0.000000,0.000000,-2.859142,0.000000
1762205229.700698,0.622285,1.874643,0.919664,0.012906,0.079488,-2.857303,0.268400,-0.002103,-0.029248,0.000000,0.000000,0.000000,1.000000,-0.000000,-0.000000,-0.000000,0.000000,0.000000,0.000000,0.000000,-2.857303,0.000000
1762205229.734032,0.622285,1.874643,0.919664,0.012906,0.079488,-2.857303,0.268400,-0.002103,-0.029248,0.000000,0.000000,0.000000,1.000000,-0.000000,-0.000000,-0.000000,0.000000,0.000000,0.000000,0.000000,-2.857303,0.000000
1762205229.767452,0.606618,1.870198,0.917889,0.012906,0.079488,-2.857303,0.268400,-0.002103,-0.029248,0.000000,0.000000,0.000000,1.000000,-0.000000,-0.000000,-0.000000,0.000000,0.000000,0.000000,0.000000,-2.857303,0.000000
1762205229.800844,0.606618,1.870198,0.917889,0.012906,0.079488,-2.857303,0.268400,-0.002103,-0.029248,0.000000,0.000000,0.000000,1.000000,-0.000000,-0.000000,-0.000000,0.000000,0.000000,0.000000,0.000000,-2.857303,0.000000
1762205229.834111,0.588187,1.864968,0.915801,0.012906,0.079488,-2.857303,0.268400,-0.002103,-0.029248,0.000000,0.000000,0.000000,1.000000,-0.000000,-0.000000,-0.000000,0.000000,0.000000,0.000000,0.000000,-2.857303,0.000000
1762205229.867351,0.571681,1.860343,0.915308,0.012906,0.079488,-2.857303,0.452917,-0.005024,-0.013041,0.000000,0.000000,0.000000,1.000000,-0.000000,-0.000000,-0.000000,0.000000,0.000000,0.000000,0.000000,-2.857303,0.000000
1762205229.900835,0.571681,1.860343,0.915308,0.012906,0.079488,-2.857303,0.452917,-0.005024,-0.013041,0.000000,0.000000,0.000000,1.000000,-0.000000,-0.000000,-0.000000,0.000000,0.000000,0.000000,0.000000,-2.857303,0.000000
1762205229.934022,0.543343,1.852403,0.914461,0.012749,0.080600,-2.857767,0.452919,-0.004814,-0.013041,0.000000,0.000000,0.000000,1.000000,-0.000000,-0.000000,-0.000000,0.000000,0.000000,0.000000,0.000000,-2.857767,0.000000
1762205229.967480,0.543343,1.852403,0.914461,0.012749,0.080600,-2.857767,0.452919,-0.004814,-0.013041,0.000000,0.000000,0.000000,-0.000000,-0.000000,-0.000000,-0.000000,0.000000,0.000000,0.000000,0.000000,-2.857767,0.000000
1762205230.000810,0.543343,1.852403,0.914461,0.012749,0.080600,-2.857767,0.452919,-0.004814,-0.013041,0.000000,0.000000,0.000000,-0.000000,-0.000000,-0.000000,-0.000000,0.000000,0.000000,0.000000,0.000000,-2.857767,0.000000
1762205230.034142,0.503407,1.841213,0.913266,0.012749,0.080600,-2.857767,0.452919,-0.004814,-0.013041,0.000000,0.000000,0.000000,-0.000000,-0.000000,-0.000000,-0.000000,0.000000,0.000000,0.000000,0.000000,-2.857767,0.000000
1762205230.067435,0.503407,1.841213,0.913266,0.012749,0.080600,-2.857767,0.452919,-0.004814,-0.013041,0.000000,0.000000,0.000000,-0.000000,-0.000000,-0.000000,-0.000000,0.000000,0.000000,0.000000,0.000000,-2.857767,0.000000
1762205230.100737,0.461329,1.829431,0.913535,0.011164,0.079309,-2.857266,0.592079,-0.006694,0.003641,0.000000,0.000000,0.000000,-0.000000,-0.000000,-0.000000,-0.000000,0.000000,0.000000,0.000000,0.000000,-2.857266,0.000000
1762205230.134034,0.436638,1.822517,0.913693,0.011164,0.079309,-2.857266,0.592079,-0.006694,0.003641,0.000000,0.000000,0.000000,-0.000000,-0.000000,-0.000000,-0.000000,0.000000,0.000000,0.000000,0.000000,-2.857266,0.000000
1762205230.167411,0.436638,1.822517,0.913693,0.011164,0.079309,-2.857266,0.592079,-0.006694,0.003641,0.000000,0.000000,0.000000,-0.000000,-0.000000,0.876705,-0.000000,0.000000,0.000000,0.000000,0.000000,-2.857266,0.000000
1762205230.200717,0.405609,1.813828,0.913891,0.011164,0.079309,-2.857266,0.592079,-0.006694,0.003641,0.000000,0.000000,0.000000,-0.000000,-0.000000,1.000000,-0.000000,0.000000,0.000000,0.000000,0.000000,-2.857266,0.000000
1762205230.234057,0.405609,1.813828,0.913891,0.011164,0.079309,-2.857266,0.592079,-0.006694,0.003641,0.000000,0.000000,0.000000,-0.000000,-0.000000,1.000000,-0.000000,0.000000,0.000000,0.000000,0.000000,-2.857266,0.000000
1762205230.267411,0.405609,1.813828,0.913891,0.011164,0.079309,-2.857266,0.592079,-0.006694,0.003641,0.000000,0.000000,0.000000,-0.000000,-0.000000,1.000000,-0.000000,0.000000,0.000000,0.000000,0.000000,-2.857266,0.000000
1762205230.300730,0.355276,1.800162,0.912707,0.006052,-0.097787,-2.855923,0.519427,-0.010671,-0.011796,0.000000,0.000000,0.000000,-0.000000,-0.000000,1.000000,-0.000000,0.000000,0.000000,0.000000,0.000000,-2.855923,0.000000
1762205230.334138,0.339526,1.795885,0.912336,0.006052,-0.097787,-2.855923,0.519427,-0.010671,-0.011796,0.000000,0.000000,0.000000,-0.000000,-0.000000,-0.000000,-0.000000,0.000000,0.000000,0.000000,0.000000,-2.855923,0.000000
1762205230.367448,0.339526,1.795885,0.912336,0.006052,-0.097787,-2.855923,0.519427,-0.010671,-0.011796,0.000000,0.000000,0.000000,-0.000000,-0.000000,-0.000000,-0.000000,0.000000,0.000000,0.000000,0.000000,-2.855923,0.000000
1762205230.400725,0.304840,1.786467,0.911520,0.006052,-0.097787,-2.855923,0.519427,-0.010671,-0.011796,0.000000,0.000000,0.000000,-0.000000,-0.000000,-0.000000,-0.000000,0.000000,0.000000,0.000000,0.000000,-2.855923,0.000000
1762205230.434033,0.304840,1.786467,0.911520,0.006052,-0.097787,-2.855923,0.519427,-0.010671,-0.011796,0.000000,0.000000,0.000000,-0.000000,-0.000000,-0.000000,-0.000000,0.000000,0.000000,0.000000,0.000000,-2.855923,0.000000
1762205230.467382,0.304840,1.786467,0.911520,0.006052,-0.097787,-2.855923,0.519427,-0.010671,-0.011796,0.000000,0.000000,0.000000,-0.000000,-0.000000,-0.000000,-0.000000,0.000000,0.000000,0.000000,0.000000,-2.855923,0.000000
1762205230.500726,0.280813,1.778999,0.979989,0.006052,-0.097787,-2.855923,0.250853,0.003936,0.682712,0.000000,0.000000,0.000000,1.000000,-0.000000,-0.000000,-0.000000,0.000000,0.000000,0.000000,0.000000,-2.855923,0.000000
1762205230.534046,0.280813,1.778999,0.979989,0.006052,-0.097787,-2.855923,0.250853,0.003936,0.682712,0.000000,0.000000,0.000000,1.000000,-0.000000,-0.000000,-0.000000,0.000000,0.000000,0.000000,0.000000,-2.855923,0.000000
1762205230.567466,0.264799,1.774021,1.025621,0.008100,-0.106508,-2.852972,0.250864,0.003196,0.682712,0.000000,0.000000,0.000000,1.000000,-0.000000,-0.000000,-0.000000,0.000000,0.000000,0.000000,0.000000,-2.852972,0.000000
1762205230.600704,0.257045,1.771611,1.047717,0.008100,-0.106508,-2.852972,0.250864,0.003196,0.682712,0.000000,0.000000,0.000000,1.000000,-0.000000,-0.000000,-0.000000,0.000000,0.000000,0.000000,0.000000,-2.852972,0.000000
1762205230.634002,0.257045,1.771611,1.047717,0.008100,-0.106508,-2.852972,0.250864,0.003196,0.682712,0.000000,0.000000,0.000000,1.000000,-0.000000,-0.000000,-0.000000,0.000000,0.000000,0.000000,0.000000,-2.852972,0.000000
1762205230.667387,0.251509,1.768749,1.054850,0.008100,-0.106508,-2.852972,0.098157,0.018738,0.114366,0.000000,0.000000,0.000000,1.000000,-0.000000,-0.000000,-0.000000,0.000000,0.000000,0.000000,0.000000,-2.852972,0.000000
1762205230.700734,0.251509,1.768749,1.054850,0.008100,-0.106508,-2.852972,0.098157,0.018738,0.114366,0.000000,0.000000,0.000000,1.000000,-0.000000,-0.000000,-0.000000,0.000000,0.000000,0.000000,0.000000,-2.852972,0.000000
1762205230.734092,0.244813,1.765286,1.063478,0.017621,-0.061345,-2.856830,0.098084,0.019116,0.114366,0.000000,0.000000,0.000000,1.000000,-0.000000,-0.000000,-0.000000,0.000000,0.000000,0.000000,0.000000,-2.856830,0.000000
1762205230.767500,0.244813,1.765286,1.063478,0.017621,-0.061345,-2.856830,0.098084,0.019116,0.114366,0.000000,0.000000,0.000000,1.000000,-0.000000,-0.000000,-0.000000,0.000000,0.000000,0.000000,0.000000,-2.856830,0.000000
1762205230.800742,0.239398,1.762486,1.070454,0.017621,-0.061345,-2.856830,0.098084,0.019116,0.114366,0.000000,0.000000,0.000000,1.000000,-0.000000,-0.000000,-0.000000,0.000000,0.000000,0.000000,0.000000,-2.856830,0.000000
1762205230.834149,0.239398,1.762486,1.070454,0.017621,-0.061345,-2.856830,0.098084,0.019116,0.114366,0.000000,0.000000,0.000000,1.000000,-0.000000,-0.000000,-0.000000,0.000000,0.000000,0.000000,0.000000,-2.856830,0.000000
1762205230.867428,0.234002,1.759695,1.077407,0.017621,-0.061345,-2.856830,0.098084,0.019116,0.114366,0.000000,0.000000,0.000000,1.000000,-0.000000,-0.000000,-0.000000,0.000000,0.000000,0.000000,0.000000,-2.856830,0.000000
1762205230.900719,0.234002,1.759695,1.077407,0.017621,-0.061345,-2.856830,0.098084,0.019116,0.114366,0.000000,0.000000,0.000000,1.000000,-0.000000,-0.000000,-0.000000,0.000000,0.000000,0.000000,0.000000,-2.856830,0.000000
1762205230.934023,0.225001,1.756042,1.075904,0.006526,0.052708,-2.856543,0.131993,0.013316,-0.020531,0.000000,0.000000,0.000000,1.000000,-0.000000,-0.000000,-0.000000,0.000000,0.000000,0.000000,0.000000,-2.856543,0.000000
1762205230.967388,0.225001,1.756042,1.075904,0.006526,0.052708,-2.856543,0.131993,0.013316,-0.020531,0.000000,0.000000,0.000000,1.000000,-0.000000,-0.000000,-0.000000,0.000000,0.000000,0.000000,0.000000,-2.856543,0.000000
1762205231.000732,0.217266,1.752902,1.074612,0.006526,0.052708,-2.856543,0.131993,0.013316,-0.020531,0.000000,0.000000,0.000000,1.000000,-0.000000,-0.000000,-0.000000,0.000000,0.000000,0.000000,0.000000,-2.856543,0.000000
1762205231.034017,0.217266,1.752902,1.074612,0.006526,0.052708,-2.856543,0.131993,0.013316,-0.020531,0.000000,0.000000,0.000000,1.000000,-0.000000,-0.000000,-0.000000,0.000000,0.000000,0.000000,0.000000,-2.856543,0.000000
1762205231.067417,0.203877,1.748205,1.076689,0.006526,0.052708,-2.856543,0.209785,0.010996,0.030754,0.000000,0.000000,0.000000,1.000000,-0.000000,-0.000000,-0.000000,0.000000,0.000000,0.000000,0.000000,-2.856543,0.000000
1762205231.100842,0.203877,1.748205,1.076689,0.006526,0.052708,-2.856543,0.209785,0.010996,0.030754,0.000000,0.000000,0.000000,1.000000,-0.000000,-0.000000,-0.000000,0.000000,0.000000,0.000000,0.000000,-2.856543,0.000000
1762205231.134012,0.190460,1.743497,1.078770,0.012490,0.073954,-2.857711,0.209772,0.011241,0.030754,0.000000,0.000000,0.000000,1.000000,-0.000000,-0.000000,-0.000000,0.000000,0.000000,0.000000,0.000000,-2.857711,0.000000
1762205231.167389,0.190460,1.743497,1.078770,0.012490,0.073954,-2.857711,0.209772,0.011241,0.030754,0.000000,0.000000,0.000000,1.000000,-0.000000,-0.000000,-0.000000,0.000000,0.000000,0.000000,0.000000,-2.857711,0.000000
1762205231.200730,0.177881,1.739084,1.080722,0.012490,0.073954,-2.857711,0.209772,0.011241,0.030754,0.000000,0.000000,0.000000,1.000000,-0.000000,-0.000000,-0.000000,0.000000,0.000000,0.000000,0.000000,-2.857711,0.000000
1762205231.234078,0.177881,1.739084,1.080722,0.012490,0.073954,-2.857711,0.209772,0.011241,0.030754,0.000000,0.000000,0.000000,1.000000,-0.000000,-0.000000,-0.000000,0.000000,0.000000,0.000000,0.000000,-2.857711,0.000000
1762205231.267394,0.153593,1.730959,1.079356,0.012490,0.073954,-2.857711,0.352301,0.013735,-0.018811,0.000000,0.000000,0.000000,1.000000,-0.000000,-0.000000,-0.000000,0.000000,0.000000,0.000000,0.000000,-2.857711,0.000000
1762205231.300727,0.153593,1.730959,1.079356,0.012490,0.073954,-2.857711,0.352301,0.013735,-0.018811,0.000000,0.000000,0.000000,1.000000,-0.000000,-0.000000,-0.000000,0.000000,0.000000,0.000000,0.000000,-2.857711,0.000000
1762205231.334066,0.132012,1.723739,1.078141,0.013030,0.081677,-2.856743,0.352314,0.013394,-0.018811,0.000000,0.000000,0.000000,1.000000,-0.000000,-0.000000,-0.000000,0.000000,0.000000,0.000000,0.000000,-2.856743,0.000000
1762205231.367420,0.132012,1.723739,1.078141,0.013030,0.081677,-2.856743,0.352314,0.013394,-0.018811,0.000000,0.000000,0.000000,1.000000,-0.000000,-0.000000,-0.000000,0.000000,0.000000,0.000000,0.000000,-2.856743,0.000000
1762205231.400751,0.108976,1.716032,1.076845,0.013030,0.081677,-2.856743,0.352314,0.013394,-0.018811,0.000000,0.000000,0.000000,1.000000,-0.000000,-0.000000,-0.000000,0.000000,0.000000,0.000000,0.000000,-2.856743,0.000000
1762205231.434069,0.108976,1.716032,1.076845,0.013030,0.081677,-2.856743,0.352314,0.013394,-0.018811,0.000000,0.000000,0.000000,1.000000,-0.000000,-0.000000,-0.000000,0.000000,0.000000,0.000000,0.000000,-2.856743,0.000000
1762205231.467392,0.087113,1.708718,1.075615,0.013030,0.081677,-2.856743,0.352314,0.013394,-0.018811,0.000000,0.000000,0.000000,1.000000,-0.000000,-0.000000,-0.000000,0.000000,0.000000,0.000000,0.000000,-2.856743,0.000000
1762205231.500765,0.087113,1.708718,1.075615,0.013030,0.081677,-2.856743,0.352314,0.013394,-0.018811,0.000000,0.000000,0.000000,1.000000,-0.000000,-0.000000,-0.000000,0.000000,0.000000,0.000000,0.000000,-2.856743,0.000000
1762205231.534069,0.055113,1.698534,1.073469,0.013030,0.081677,-2.856743,0.548397,0.012750,-0.035066,0.000000,0.000000,0.000000,1.000000,-0.000000,-0.000000,-0.000000,0.000000,0.000000,0.000000,0.000000,-2.856743,0.000000
1762205231.567372,0.055113,1.698534,1.073469,0.013030,0.081677,-2.856743,0.548397,0.012750,-0.035066,0.000000,0.000000,0.000000,1.000000,-0.000000,-0.000000,-0.000000,0.000000,0.000000,0.000000,0.000000,-2.856743,0.000000
1762205231.600808,0.015928,1.686065,1.070840,0.013126,0.082933,-2.855397,0.548414,0.012011,-0.035066,0.000000,0.000000,0.000000,1.000000,-0.000000,-0.000000,-0.000000,0.000000,0.000000,0.000000,0.000000,-2.855397,0.000000
1762205231.634051,0.015928,1.686065,1.070840,0.013126,0.082933,-2.855397,0.548414,0.012011,-0.035066,0.000000,0.000000,0.000000,1.000000,-0.000000,-0.000000,-0.000000,0.000000,0.000000,0.000000,0.000000,-2.855397,0.000000
1762205231.667366,-0.022988,1.674059,1.068377,0.013126,0.082933,-2.855397,0.684381,0.008922,-0.041395,0.000000,0.000000,0.000000,1.000000,-0.000000,-0.000000,-0.000000,0.000000,0.000000,0.000000,0.000000,-2.855397,0.000000
1762205231.700716,-0.022988,1.674059,1.068377,0.013126,0.082933,-2.855397,0.684381,0.008922,-0.041395,0.000000,0.000000,0.000000,1.000000,-0.000000,-0.000000,-0.000000,0.000000,0.000000,0.000000,0.000000,-2.855397,0.000000
1762205231.734171,-0.066666,1.660585,1.065612,0.011403,0.080528,-2.856523,0.684371,0.009692,-0.041395,0.000000,0.000000,0.000000,1.000000,-0.000000,-0.000000,-0.000000,0.000000,0.000000,0.000000,0.000000,-2.856523,0.000000
1762205231.767424,-0.066666,1.660585,1.065612,0.011403,0.080528,-2.856523,0.684371,0.009692,-0.041395,0.000000,0.000000,0.000000,1.000000,-0.000000,-0.000000,-0.000000,0.000000,0.000000,0.000000,0.000000,-2.856523,0.000000
1762205231.800761,-0.111412,1.646781,1.062780,0.011403,0.080528,-2.856523,0.684371,0.009692,-0.041395,0.000000,0.000000,0.000000,1.000000,-0.000000,-0.000000,-0.000000,0.000000,0.000000,0.000000,0.000000,-2.856523,0.000000
1762205231.834038,-0.111412,1.646781,1.062780,0.011403,0.080528,-2.856523,0.684371,0.009692,-0.041395,0.000000,0.000000,0.000000,1.000000,-0.000000,-0.000000,-0.000000,0.000000,0.000000,0.000000,0.000000,-2.856523,0.000000
1762205231.867370,-0.156213,1.632960,1.059945,0.011403,0.080528,-2.856523,0.684371,0.009692,-0.041395,0.000000,0.000000,0.000000,1.000000,-0.000000,-0.000000,-0.000000,0.000000,0.000000,0.000000,0.000000,-2.856523,0.000000
1762205231.900726,-0.156213,1.632960,1.059945,0.011403,0.080528,-2.856523,0.684371,0.009692,-0.041395,0.000000,0.000000,0.000000,1.000000,-0.000000,-0.000000,-0.000000,0.000000,0.000000,0.000000,0.000000,-2.856523,0.000000
1762205231.934052,-0.210656,1.616310,1.059452,0.014308,0.079246,-2.856215,0.801304,0.009140,-0.006935,0.000000,0.000000,0.000000,1.000000,-0.000000,-0.000000,-0.000000,0.000000,0.000000,0.000000,0.000000,-2.856215,0.000000
1762205231.967370,-0.251208,1.603909,1.059085,0.014308,0.079246,-2.856215,0.801304,0.009140,-0.006935,0.000000,0.000000,0.000000,1.000000,-0.000000,-0.000000,-0.000000,0.000000,0.000000,0.000000,0.000000,-2.856215,0.000000
1762205232.000718,-0.251208,1.603909,1.059085,0.014308,0.079246,-2.856215,0.801304,0.009140,-0.006935,0.000000,0.000000,0.000000,1.000000,-0.000000,-0.000000,-0.000000,0.000000,0.000000,0.000000,0.000000,-2.856215,0.000000
1762205232.034024,-0.251208,1.603909,1.059085,0.014308,0.079246,-2.856215,0.801304,0.009140,-0.006935,0.000000,0.000000,0.000000,1.000000,-0.000000,-0.000000,-0.000000,0.000000,0.000000,0.000000,0.000000,-2.856215,0.000000
1762205232.067372,-0.318308,1.584084,1.059018,0.014308,0.079246,-2.856215,0.970625,0.001852,-0.000927,0.000000,0.000000,0.000000,1.000000,-0.000000,-0.000000,-0.000000,0.000000,0.000000,0.000000,0.000000,-2.856215,0.000000
1762205232.100912,-0.318308,1.584084,1.059018,0.014308,0.079246,-2.856215,0.970625,0.001852,-0.000927,0.000000,0.000000,0.000000,1.000000,-0.000000,-0.000000,-0.000000,0.000000,0.000000,0.000000,0.000000,-2.856215,0.000000
1762205232.134048,-0.385317,1.564285,1.058951,0.013111,0.078682,-2.855420,0.970626,0.001080,-0.000927,0.000000,0.000000,0.000000,1.000000,-0.000000,-0.000000,-0.000000,0.000000,0.000000,0.000000,0.000000,-2.855420,0.000000
1762205232.167382,-0.385317,1.564285,1.058951,0.013111,0.078682,-2.855420,0.970626,0.001080,-0.000927,0.000000,0.000000,0.000000,1.000000,-0.000000,-0.000000,-0.000000,0.000000,0.000000,0.000000,0.000000,-2.855420,0.000000
1762205232.200715,-0.441635,1.547645,1.058895,0.013111,0.078682,-2.855420,0.970626,0.001080,-0.000927,0.000000,0.000000,0.000000,1.000000,-0.000000,-0.000000,-0.000000,0.000000,0.000000,0.000000,0.000000,-2.855420,0.000000
1762205232.234023,-0.441635,1.547645,1.058895,0.013111,0.078682,-2.855420,0.970626,0.001080,-0.000927,0.000000,0.000000,0.000000,1.000000,-0.000000,-0.000000,-0.000000,0.000000,0.000000,0.000000,0.000000,-2.855420,0.000000
1762205232.267374,-0.518052,1.525235,1.059037,0.013111,0.078682,-2.855420,1.077324,-0.000981,0.001919,0.000000,0.000000,0.000000,1.000000,-0.000000,-0.000000,-0.000000,0.000000,0.000000,0.000000,0.000000,-2.855420,0.000000
1762205232.300730,-0.518052,1.525235,1.059037,0.013111,0.078682,-2.855420,1.077324,-0.000981,0.001919,0.000000,0.000000,0.000000,1.000000,-0.000000,-0.000000,-0.000000,0.000000,0.000000,0.000000,0.000000,-2.855420,0.000000
1762205232.334050,-0.585319,1.505509,1.059162,0.013010,0.077447,-2.853519,1.077320,-0.003028,0.001919,0.000000,0.000000,0.000000,1.000000,-0.000000,-0.000000,-0.000000,0.000000,0.000000,0.000000,0.000000,-2.853519,0.000000
1762205232.367411,-0.585319,1.505509,1.059162,0.013010,0.077447,-2.853519,1.077320,-0.003028,0.001919,0.000000,0.000000,0.000000,1.000000,-0.000000,-0.000000,-0.000000,0.000000,0.000000,0.000000,0.000000,-2.853519,0.000000
1762205232.400730,-0.647344,1.487319,1.059277,0.013010,0.077447,-2.853519,1.077320,-0.003028,0.001919,0.000000,0.000000,0.000000,1.000000,-0.000000,-0.000000,-0.000000,0.000000,0.000000,0.000000,0.000000,-2.853519,0.000000
1762205232.434100,-0.647344,1.487319,1.059277,0.013010,0.077447,-2.853519,1.077320,-0.003028,0.001919,0.000000,0.000000,0.000000,1.000000,-0.000000,-0.000000,-0.000000,0.000000,0.000000,0.000000,0.000000,-2.853519,0.000000
1762205232.467393,-0.722802,1.465190,1.059417,0.013010,0.077447,-2.853519,1.077320,-0.003028,0.001919,0.000000,0.000000,0.000000,1.000000,-0.000000,-0.000000,-0.000000,0.000000,0.000000,0.000000,0.000000,-2.853519,0.000000
1762205232.500736,-0.722802,1.465190,1.059417,0.013010,0.077447,-2.853519,1.077320,-0.003028,0.001919,0.000000,0.000000,0.000000,1.000000,-0.000000,-0.000000,-0.000000,0.000000,0.000000,0.000000,0.000000,-2.853519,0.000000
1762205232.534060,-0.793958,1.444339,1.059660,0.013010,0.077447,-2.853519,1.159893,-0.003506,0.003803,0.000000,0.000000,0.000000,1.000000,-0.000000,-0.000000,-0.000000,0.000000,0.000000,0.000000,0.000000,-2.853519,0.000000
1762205232.567395,-0.793958,1.444339,1.059660,0.013010,0.077447,-2.853519,1.159893,-0.003506,0.003803,0.000000,0.000000,0.000000,1.000000,-0.000000,-0.000000,-0.000000,0.000000,0.000000,0.000000,0.000000,-2.853519,0.000000
1762205232.600724,-0.870057,1.422040,1.059920,0.011082,0.076260,-2.854470,1.159896,-0.002402,0.003803,0.000000,0.000000,0.000000,1.000000,-0.000000,-0.000000,-0.000000,0.000000,0.000000,0.000000,0.000000,-2.854470,0.000000
